City_ID,City,Lat,Lng,Max Temp,Humidity,Cloudiness,Wind Speed,Country,Date
0,hawaiian paradise park,19.5933,-154.9731,22.8,94,100,2.57,US,1693126262
1,port-aux-francais,-49.35,70.2167,6.61,96,100,21.01,TF,1693126263
2,adamstown,-25.066,-130.1015,19.58,61,54,7.0,PN,1693126263
3,port alfred,-33.5906,26.891,18.43,52,67,2.24,ZA,1693126054
4,puerto baquerizo moreno,-0.9,-89.6,23.38,79,81,5.61,EC,1693126264
5,arteche,12.2645,125.4048,29.36,70,99,5.22,PH,1693126264
6,dauphin,51.1494,-100.0502,17.08,72,0,4.63,CA,1693126265
7,kuchera,26.9839,73.9719,34.59,36,5,6.66,IN,1693126265
8,waitangi,-43.9535,-176.5597,6.01,65,100,5.47,NZ,1693126267
9,blackmans bay,-43.0167,147.3167,8.07,88,0,0.5,AU,1693126267
10,port elizabeth,-33.918,25.5701,17.16,55,0,4.63,ZA,1693125977
11,puerto natales,-51.7236,-72.4875,1.26,97,100,1.27,CL,1693126268
12,papatowai,-46.5619,169.4708,4.46,75,100,3.37,NZ,1693126269
13,uturoa,-16.7333,-151.4333,26.12,70,17,6.75,PF,1693126270
14,zaragoza,41.6561,-0.8773,19.25,51,20,13.89,ES,1693126271
15,rikaze,29.25,88.8833,21.73,30,71,1.08,CN,1693126271
16,el jadid,33.2549,-8.506,23.45,64,3,9.38,MA,1693126272
17,tomatlan,19.9333,-105.25,23.88,96,100,1.13,MX,1693126273
18,wailua homesteads,22.0669,-159.378,26.44,78,40,7.2,US,1693126273
19,puerto santa,-8.9906,-78.6456,18.99,88,57,4.23,PE,1693126274
20,inirida,3.8653,-67.9239,23.26,90,0,0.22,CO,1693126274
21,grytviken,-54.2811,-36.5092,-5.35,83,78,3.89,GS,1693126113
22,ruteng,-8.6136,120.4721,19.25,70,88,1.03,ID,1693126097
23,ribeira grande,38.5167,-28.7,23.22,78,20,7.72,PT,1693126147
24,general conesa,-40.1,-64.4333,6.1,49,12,4.81,AR,1693126276
25,jamestown,42.097,-79.2353,16.37,100,100,3.6,US,1693126019
26,nemuro,43.3236,145.575,19.92,98,100,5.15,JP,1693126047
27,port mathurin,-19.6833,63.4167,22.88,72,31,10.39,MU,1693126277
28,karratha,-20.7377,116.8463,25.93,37,0,5.86,AU,1693126168
29,ilulissat,69.2167,-51.1,3.76,89,98,4.07,GL,1693126279
30,edinburgh of the seven seas,-37.0676,-12.3116,14.44,94,100,10.45,SH,1693126279
31,lebu,-37.6167,-73.65,6.54,77,0,2.62,CL,1693126042
32,kuta,-8.7233,115.1723,27.97,74,20,6.26,ID,1693125989
33,bethel,41.3712,-73.414,19.81,88,0,0.45,US,1693126255
34,ushuaia,-54.8,-68.3,5.81,52,0,2.57,AR,1693126281
35,areka,7.0667,37.7,23.55,56,3,2.06,ET,1693126167
36,mejit,10.2753,170.8646,27.86,80,99,5.4,MH,1693126282
37,edmundston,47.3737,-68.3251,13.13,94,75,2.57,CA,1693126283
38,bredasdorp,-34.5322,20.0403,14.79,53,65,3.29,ZA,1693126027
39,tolanaro,-25.0319,46.9987,28.04,57,20,3.6,MG,1693126284
40,gargalianoi,37.0667,21.6333,32.34,49,1,3.56,GR,1693126284
41,whitehorse,60.7161,-135.0538,17.43,59,20,5.14,CA,1693126285
42,mahebourg,-20.4081,57.7,26.25,69,75,6.17,MU,1693126286
43,punta arenas,-53.15,-70.9167,2.92,92,100,3.37,CL,1693126286
44,olinda,-8.0089,-34.8553,23.85,100,75,1.03,BR,1693125991
45,longyearbyen,78.2186,15.6401,7.91,93,75,3.6,SJ,1693126133
46,yellowknife,62.456,-114.3525,11.34,95,98,1.34,CA,1693126288
47,talipparamba,12.05,75.35,29.7,68,98,3.39,IN,1693126288
48,lorengau,-2.0226,147.2712,27.64,83,62,6.74,PG,1693126289
49,hamilton,39.1834,-84.5333,21.05,89,0,4.12,US,1693126289
50,dudinka,69.4058,86.1778,15.9,60,51,6.87,RU,1693126290
51,al jawf,29.5,38.75,34.49,17,0,4.19,SA,1693126290
52,sambava,-14.2667,50.1667,25.56,69,28,6.49,MG,1693126127
53,colonia,50.9333,6.95,19.42,75,20,2.06,DE,1693126023
54,petropavlovsk-kamchatsky,53.0452,158.6483,17.33,72,0,2.0,RU,1693126292
55,albany,42.6001,-73.9662,17.73,88,28,1.69,US,1693126292
56,puerto ayora,-0.7393,-90.3518,24.19,94,64,2.68,EC,1693126293
57,isafjordur,66.0755,-23.124,11.02,71,75,0.0,IS,1693126293
58,wagar,16.1525,36.2032,33.76,39,87,7.13,SD,1693126294
59,kapuskasing,49.4169,-82.4331,4.05,100,0,0.0,CA,1693126294
60,lautoka,-17.6167,177.4667,23.92,69,20,5.66,FJ,1693126295
61,topeka,39.0483,-95.678,21.71,85,100,2.57,US,1693126295
62,iqaluit,63.7506,-68.5145,5.85,87,100,7.72,CA,1693126296
63,kaliua,-5.0606,31.7936,32.16,24,9,3.68,TZ,1693126296
64,georgetown,5.4112,100.3354,31.97,65,20,4.63,MY,1693126287
65,yeniseysk,58.4497,92.1703,21.58,39,23,2.51,RU,1693126297
66,volksrust,-27.3654,29.8818,13.07,33,1,3.51,ZA,1693126263
67,margaret river,-33.95,115.0667,17.15,78,99,6.19,AU,1693126041
68,brisas de zicatela,15.8369,-97.0419,25.55,87,41,2.7,MX,1693126298
69,szczecin,53.4289,14.553,19.12,80,92,1.34,PL,1693126086
70,kirakira,-10.4544,161.9205,25.18,83,100,6.75,SB,1693126155
71,hermanus,-34.4187,19.2345,14.89,60,68,4.34,ZA,1693126300
72,thompson,55.7435,-97.8558,15.09,88,0,3.09,CA,1693126300
73,udachny,66.4167,112.4,26.36,27,46,5.06,RU,1693126301
74,jabor,5.921,169.6434,28.67,70,66,2.38,MH,1693126301
75,susuman,62.7833,148.1667,12.51,57,71,3.29,RU,1693126302
76,tejen,37.3834,60.5054,31.03,24,0,7.41,TM,1693126302
77,invercargill,-46.4,168.35,4.45,84,94,2.03,NZ,1693125998
78,as sulayyil,20.4607,45.5779,41.14,6,100,6.92,SA,1693126303
79,korla,41.7597,86.1469,33.89,11,58,5.9,CN,1693126303
80,olonkinbyen,70.9221,-8.7187,6.92,88,100,9.21,SJ,1693126304
81,carutapera,-1.195,-46.02,23.63,91,31,2.06,BR,1693126304
82,kumagunnam,13.1551,10.6342,33.08,45,46,6.12,NG,1693126255
83,aoulef,26.9667,1.0833,36.92,21,48,3.28,DZ,1693126305
84,vilyuchinsk,52.9306,158.4028,18.15,76,64,0.51,RU,1693126306
85,celendin,-6.8703,-78.1517,10.51,87,29,0.91,PE,1693126306
86,katsuren-haebaru,26.3369,127.8719,32.21,70,75,3.6,JP,1693126247
87,bhamo,24.2667,97.2333,28.06,88,100,0.6,MM,1693126308
88,pisco,-13.7,-76.2167,18.34,88,100,2.57,PE,1693126308
89,tralee,52.2704,-9.7026,13.14,100,100,3.6,IE,1693126309
90,constantia,44.1833,28.65,30.39,56,0,4.72,RO,1693126309
91,afaahiti,-17.75,-149.2833,22.93,74,19,7.48,PF,1693126310
92,nova sintra,14.8667,-24.7167,24.32,75,25,1.15,CV,1693126310
93,st. john's,47.5649,-52.7093,12.86,94,75,3.09,CA,1693126311
94,quellon,-43.1167,-73.6167,8.14,87,100,5.14,CL,1693126311
95,talnakh,69.4865,88.3972,15.67,54,87,4.47,RU,1693126261
96,labuan bajo,-8.4964,119.8877,26.07,69,41,3.0,ID,1693126312
97,sao vicente,-23.9631,-46.3919,16.26,26,100,0.45,BR,1693126313
98,weiser,44.251,-116.9693,24.62,55,13,2.11,US,1693126313
99,kailua-kona,19.6406,-155.9956,26.98,86,0,2.06,US,1693126314
100,den helder,52.9599,4.7593,17.77,84,20,4.63,NL,1693126314
101,suva,-18.1416,178.4415,22.71,83,75,4.63,FJ,1693126025
102,la malbaie,47.6575,-70.1559,15.37,94,20,2.03,CA,1693126315
103,makhalino,53.0854,46.2211,17.86,61,100,5.25,RU,1693126316
104,lawas,13.764,121.0566,25.55,87,100,9.33,PH,1693126316
105,coahuayana de hidalgo,18.7,-103.6583,24.87,91,100,1.74,MX,1693126317
106,camana,-16.6228,-72.7111,16.6,86,67,2.93,PE,1693126317
107,alzamay,55.5562,98.6644,24.19,54,90,2.55,RU,1693126317
108,rawlins,41.7911,-107.2387,16.94,55,0,0.0,US,1693126319
109,champua,22.0833,85.6667,31.04,60,92,3.86,IN,1693126320
110,hadibu,12.65,54.0333,28.95,68,54,9.72,YE,1693126320
111,dzhangala,49.2167,50.3333,23.71,26,16,6.18,KZ,1693126321
112,kloulklubed,7.0419,134.2556,28.14,82,74,6.45,PW,1693126321
113,ust-nera,64.5667,143.2,13.11,67,100,2.3,RU,1693126322
114,qusmuryn,52.4503,64.6311,19.27,33,52,5.03,KZ,1693126322
115,margate,51.3813,1.3862,16.5,78,1,3.58,GB,1693126323
116,weno,7.4515,151.8468,28.4,74,100,3.45,FM,1693126323
117,bilibino,68.0546,166.4372,8.27,93,100,1.7,RU,1693126251
118,nizhneudinsk,54.9076,99.0276,23.75,59,95,1.61,RU,1693126324
119,lata,40.1629,-8.3327,18.37,57,60,2.72,PT,1693126325
120,clearwater,27.9659,-82.8001,27.26,81,40,2.06,US,1693126325
121,gunjur,13.2019,-16.7339,26.04,94,75,0.0,GM,1693126326
122,beau vallon,-20.4189,57.6953,26.23,69,75,6.17,MU,1693126326
123,semnan,35.5729,53.3971,28.45,37,15,3.13,IR,1693126327
124,lazaro cardenas,17.9583,-102.2,25.81,89,100,1.91,MX,1693126327
125,zheleznodorozhnyy,55.7503,38.0042,20.2,65,58,3.0,RU,1693126328
126,angaur state,6.906,134.13,28.13,83,71,6.65,PW,1693126328
127,tazovsky,67.4667,78.7,14.34,58,90,5.2,RU,1693126329
128,vorgashor,67.5833,63.95,5.15,96,100,6.57,RU,1693126329
129,alofi,-19.0595,-169.9187,20.94,73,90,4.12,NU,1693126330
130,san donaci,40.4506,17.9251,33.97,39,0,3.98,IT,1693126330
131,glace bay,46.1969,-59.957,18.38,96,100,8.23,CA,1693126330
132,bardai,11.65,7.2333,27.35,66,97,2.15,NG,1693126331
133,badger,64.8,-147.5333,20.93,71,100,4.63,US,1693126331
134,east ballina,-28.8667,153.5833,16.82,72,9,3.92,AU,1693126332
135,rodolfo sanchez taboada,31.7167,-116.5667,17.83,85,13,0.45,MX,1693126089
136,tura,25.5198,90.2201,26.12,94,100,1.58,IN,1693126333
137,suoyarvi,62.0833,32.35,17.84,52,80,2.44,RU,1693126334
138,fort bragg,35.139,-79.006,24.69,89,100,2.06,US,1693126134
139,cabo san lucas,22.8909,-109.9124,29.17,78,23,4.02,MX,1693126335
140,fisterra,42.9049,-9.2629,19.3,74,24,6.07,ES,1693126335
141,macau,22.2006,113.5461,30.89,84,40,5.14,MO,1693126200
142,keflavik,64.0049,-22.5624,11.24,76,75,6.17,IS,1693126336
143,ende,-8.8432,121.6623,27.34,59,21,1.25,ID,1693126337
144,iskateley,67.6803,53.1512,8.72,88,100,5.77,RU,1693126337
145,anadyr,64.75,177.4833,8.28,81,0,3.0,RU,1693126338
146,touros,-5.1989,-35.4608,24.74,89,6,3.56,BR,1693126338
147,kismayo,-0.3582,42.5454,28.32,67,19,7.3,SO,1693126338
148,severo-yeniseyskiy,60.3725,93.0408,17.08,47,98,2.31,RU,1693126339
149,verdal,63.7933,11.4817,17.02,74,100,5.83,NO,1693126339
150,valle de la pascua,9.2155,-66.0073,22.55,92,12,1.06,VE,1693126340
151,salida,37.7058,-121.0849,21.19,65,0,2.57,US,1693126341
152,sisimiut,66.9395,-53.6735,5.29,89,100,9.24,GL,1693126341
153,tamanrasset,22.785,5.5228,27.95,42,89,3.6,DZ,1693126342
154,gafsa,34.425,8.7842,34.12,24,0,2.57,TN,1693126280
155,nadym,65.5333,72.5167,15.64,53,73,4.29,RU,1693126343
156,inhambane,-23.865,35.3833,22.99,60,75,12.96,MZ,1693126251
157,lompoc,34.6391,-120.4579,16.4,87,100,4.92,US,1693126344
158,phuthaditjhaba,-28.5242,28.8158,12.73,31,0,2.58,ZA,1693126155
159,ayr,55.4627,-4.6339,15.17,77,75,5.14,GB,1693126345
160,gulf shores,30.246,-87.7008,30.56,80,0,0.0,US,1693126345
161,mossel bay,-34.1831,22.146,14.96,49,12,1.43,ZA,1693126346
162,megion,61.0296,76.1136,16.01,56,20,2.78,RU,1693126347
163,waajid,3.8096,43.2463,32.6,27,34,9.13,SO,1693126347
164,kununurra,-15.7667,128.7333,31.99,19,2,4.12,AU,1693126348
165,hasaki,35.7333,140.8333,29.06,82,100,2.32,JP,1693126348
166,taro,-8.3862,115.28,24.0,82,83,1.32,ID,1693126349
167,muisne,0.6,-80.0333,24.82,89,100,4.44,EC,1693126349
168,sassandra,4.95,-6.0833,25.3,86,100,3.38,CI,1693126350
169,port lincoln,-34.7333,135.8667,11.88,68,8,1.56,AU,1693126145
170,riviere-du-loup,47.8304,-69.5342,12.15,82,81,2.06,CA,1693126351
171,road town,18.4167,-64.6167,29.05,74,93,5.63,VG,1693126351
172,atafu village,-8.5421,-172.5159,28.38,71,95,5.78,TK,1693126252
173,espiye,40.9479,38.7115,25.37,68,7,2.89,TR,1693126269
174,champerico,14.3,-91.9167,26.84,81,100,2.36,GT,1693126352
175,lihue,21.9789,-159.3672,26.77,76,40,7.2,US,1693126353
176,mirnyy,62.5353,113.9611,25.13,31,9,0.89,RU,1693126353
177,dhulikhel,27.6189,85.5529,25.76,84,68,2.07,NP,1693126354
178,kristiansund,63.1115,7.732,15.36,88,100,2.06,NO,1693126354
179,toliara,-23.35,43.6667,26.22,63,0,7.78,MG,1693126355
180,rio grande,-32.035,-52.0986,1.08,77,4,4.7,BR,1693126355
181,tiksi,71.6872,128.8694,14.84,77,36,3.05,RU,1693126356
182,shuangjiang,26.1547,109.7138,26.01,91,100,0.69,CN,1693126356
183,basse-terre,16.1667,-61.6667,23.58,94,0,1.03,GP,1693126357
184,vernon,50.2581,-119.2691,19.05,54,16,2.06,CA,1693126357
185,molo,-0.2479,35.7374,22.75,33,14,2.9,KE,1693126358
186,vikulovo,56.8167,70.6107,18.23,39,62,0.68,RU,1693126359
187,la'ie,21.6477,-157.9253,25.98,77,1,4.02,US,1693126359
188,sawakin,19.1059,37.3321,39.17,42,67,0.72,SD,1693126361
189,kerikeri,-35.2268,173.9474,8.28,89,5,1.89,NZ,1693126361
190,avarua,-21.2078,-159.775,22.03,83,100,2.57,CK,1693126362
191,batang,-6.4846,110.7083,28.78,61,4,6.91,ID,1693126362
192,port blair,11.6667,92.75,28.02,83,75,4.12,IN,1693126363
193,acarau,-2.8856,-40.12,24.25,89,16,3.71,BR,1693126363
194,kodiak,57.79,-152.4072,13.73,88,75,3.6,US,1693126364
195,lota,-37.0833,-73.1667,2.7,85,0,1.88,CL,1693126071
196,stanley,54.868,-1.6985,15.71,92,75,3.09,GB,1693126365
197,egilsstadir,65.2653,-14.3948,10.95,87,100,3.6,IS,1693126365
198,sao francisco,-15.9486,-44.8644,23.16,74,91,1.79,BR,1693126366
199,nabire,-3.3667,135.4833,26.36,86,97,0.66,ID,1693126083
200,xinyuan,37.3,99.0,11.86,53,86,5.23,CN,1693126366
201,fort mcmurray,56.7268,-111.381,14.73,94,0,1.54,CA,1693126367
202,la passe,45.5549,-0.8967,19.13,60,1,4.84,FR,1693126367
203,broken hill,-31.95,141.4333,18.82,27,1,3.66,AU,1693126342
204,brookings,44.3114,-96.7984,13.0,98,0,1.54,US,1693126368
205,antsiranana,-12.2787,49.2917,28.42,57,75,9.26,MG,1693126369
206,homer,59.6425,-151.5483,16.94,67,75,1.54,US,1693126369
207,bolgatanga,10.7856,-0.8514,26.65,81,100,3.15,GH,1693126370
208,enewetak,11.3474,162.3373,27.67,78,100,9.24,MH,1693126370
209,geraldton,-28.7667,114.6,22.23,68,0,5.66,AU,1693126235
210,al minya,28.1099,30.7503,37.3,21,0,5.24,EG,1693126371
211,pavugada,14.1,77.2667,31.95,39,100,5.41,IN,1693126371
212,beyneu,45.3167,55.2,23.14,22,1,7.28,KZ,1693126372
213,khuzdar,27.7384,66.6434,36.51,9,14,3.52,PK,1693126372
214,juneau,58.3019,-134.4197,14.56,95,20,0.0,US,1693126373
215,mandalgovi,45.7625,106.2708,22.31,29,4,7.89,MN,1693126373
216,west island,-12.1568,96.8225,25.99,73,100,7.72,CC,1693126374
217,stavern,59.0,10.0333,16.71,80,99,8.2,NO,1693126374
218,murudeshwara,14.0943,74.4845,29.11,68,96,4.76,IN,1693126375
219,saudarkrokur,65.7461,-19.6394,11.19,83,100,1.75,IS,1693126375
220,curuzu cuatia,-29.7917,-58.0546,5.16,69,32,2.84,AR,1693126375
221,nago,26.5881,127.9761,32.24,78,16,1.39,JP,1693126073
222,forster,-32.1667,152.5167,12.94,91,49,3.33,AU,1693126376
223,mont-laurier,46.5501,-75.4993,11.79,88,14,1.88,CA,1693126377
224,new norfolk,-42.7826,147.0587,8.72,87,0,0.82,AU,1693126377
225,madang,-5.2246,145.7966,26.17,88,72,3.64,PG,1693126378
226,eduardo castex,-35.915,-64.2945,4.3,89,5,3.15,AR,1693126378
227,murghob,38.1702,73.9667,15.05,22,11,7.02,TJ,1693126379
228,tindouf,27.6711,-8.1474,32.25,20,0,2.57,DZ,1693126379
229,utrik,11.2278,169.8474,28.11,80,100,6.72,MH,1693126380
230,erenhot,43.6475,111.9767,27.74,19,76,1.17,CN,1693126380
231,vadso,70.0744,29.7487,10.09,76,100,2.57,NO,1693126381
232,ketchikan,55.3422,-131.6461,15.99,93,41,0.87,US,1693126381
233,mar del plata,-38.0023,-57.5575,3.86,90,0,2.06,AR,1693126382
234,olovyannaya,50.95,115.5667,21.22,41,97,5.35,RU,1693126382
235,foumban,5.7291,10.9001,20.66,88,100,1.42,CM,1693126162
236,yondo,7.0062,-73.9097,23.74,98,78,0.11,CO,1693126383
237,tual,-5.6667,132.75,25.43,84,78,10.86,ID,1693126384
238,palangkaraya,-2.2,113.8333,31.55,49,86,1.76,ID,1693126324
239,sarangani,5.4033,125.4636,28.36,75,2,6.96,PH,1693126385
240,salinopolis,-0.6136,-47.3561,25.06,85,16,3.17,BR,1693126222
241,at taj,24.2049,23.2857,39.94,12,0,4.4,LY,1693126386
242,taiyuan,37.8694,112.5603,17.92,77,100,4.0,CN,1693126387
243,calca,-13.3333,-71.95,13.2,63,99,1.08,PE,1693126387
244,sechelt,49.4664,-123.7694,21.4,58,0,1.56,CA,1693126388
245,seremban,2.7297,101.9381,29.73,74,99,1.55,MY,1693126305
246,geneina,13.45,22.45,29.72,62,100,5.1,SD,1693126105
247,bam,29.106,58.357,38.58,10,0,7.52,IR,1693126389
248,arkhangel'sk,64.5401,40.5433,12.27,63,100,3.38,RU,1693126389
249,porto novo,6.4965,2.6036,26.9,72,100,3.4,BJ,1693126095
250,qaqortoq,60.7167,-46.0333,5.75,86,94,0.55,GL,1693126390
251,trinity beach,-16.7888,145.6968,21.94,68,40,4.63,AU,1693126391
252,kayangel,8.0823,134.7173,28.25,85,96,7.03,PW,1693126391
253,alice springs,-23.7,133.8833,23.75,12,2,5.14,AU,1693126392
254,ito,34.9667,139.0833,28.41,85,100,1.11,JP,1693126392
255,khandyga,62.6667,135.6,15.9,69,53,1.75,RU,1693126393
256,mersing,2.4312,103.8405,30.95,79,40,2.57,MY,1693126393
257,calama,-22.4667,-68.9333,7.27,13,0,8.23,CL,1693126394
258,kyelang,32.5833,77.0333,10.62,78,95,3.45,IN,1693126394
259,graham,47.0529,-122.2943,19.07,76,100,0.45,US,1693126395
260,narra,9.3167,118.4,29.12,75,58,3.95,PH,1693126395
261,ostersund,63.1792,14.6357,13.25,100,100,5.66,SE,1693126395
262,chinde,26.8418,88.0763,22.12,87,100,0.71,NP,1693126396
263,laguna,38.421,-121.4238,21.76,73,0,3.09,US,1693126396
264,north elba,44.2434,-73.9543,14.54,98,92,0.96,US,1693126397
265,port shepstone,-30.7414,30.455,18.75,46,52,7.63,ZA,1693126398
266,portland,45.5234,-122.6762,22.11,75,100,2.06,US,1693126149
267,coxcatlan,18.2667,-97.15,19.14,88,75,0.22,MX,1693126398
268,hithadhoo,-0.6,73.0833,28.28,73,11,3.13,MV,1693126399
269,kitale,1.0157,35.0062,26.08,36,21,0.68,KE,1693126400
270,deschutes river woods,43.9915,-121.3584,17.17,68,0,0.45,US,1693126400
271,boshkengash,38.4661,68.8053,18.19,88,100,5.0,TJ,1693126400
272,turpan,42.9333,89.1667,42.05,8,1,3.25,CN,1693126401
273,idri,27.5,13.2667,36.45,22,37,6.6,LY,1693126401
274,robinson,31.4677,-97.1147,31.4,49,3,2.06,US,1693126402
275,ola,59.5833,151.2833,16.19,85,92,1.2,RU,1693126402
276,las vegas,36.175,-115.1372,32.6,18,0,8.05,US,1693126142
277,pandan,14.0453,124.1694,28.62,75,100,8.03,PH,1693126403
278,kasimov,54.9411,41.3953,20.05,54,37,3.51,RU,1693126404
279,corinto,37.9407,22.9573,32.16,32,34,2.71,GR,1693126404
280,shibirghan,36.6676,65.7529,29.26,32,34,8.22,AF,1693126405
281,polyarnyy,69.1989,33.4478,10.2,81,100,5.65,RU,1693126405
282,bokoro,12.3807,17.0568,28.55,64,100,5.79,TD,1693126406
283,alenquer,-1.9417,-54.7383,23.23,71,0,1.78,BR,1693126407
284,tocopilla,-22.092,-70.1979,17.27,67,18,0.88,CL,1693126407
285,la romana,18.4273,-68.9728,26.41,85,95,4.31,DO,1693126408
286,seka,17.9285,103.9552,30.74,69,100,5.16,TH,1693126356
287,essaouira,31.5125,-9.77,25.72,65,0,7.2,MA,1693126409
288,freetown,8.484,-13.2299,23.84,100,75,1.54,SL,1693126410
289,princeville,45.7668,-61.2985,19.68,97,100,4.63,CA,1693126410
290,ejura,7.3856,-1.3562,26.45,79,99,2.75,GH,1693126410
291,dryden,49.7833,-92.7503,11.16,100,100,3.09,CA,1693126411
292,borba,-4.3878,-59.5939,22.93,82,4,1.39,BR,1693126411
293,rusape,-18.5278,32.1284,19.78,54,72,5.18,ZW,1693126412
294,yayva,59.3303,57.2641,15.1,73,100,2.39,RU,1693126412
295,novodvinsk,64.4165,40.8122,11.9,64,100,3.11,RU,1693126413
296,envira,-7.3,-70.2167,22.63,79,4,0.24,BR,1693126413
297,vytegra,61.0064,36.4481,16.15,65,100,5.03,RU,1693126414
298,slave lake,55.2834,-114.769,12.99,80,0,1.03,CA,1693126414
299,ellon,57.3641,-2.0731,14.01,100,75,5.66,GB,1693126415
300,papao,-17.75,-149.55,23.82,71,15,6.9,PF,1693126415
301,nebbi,2.4783,31.0889,29.3,46,16,2.51,UG,1693126158
302,kargil,34.5667,76.1,19.37,23,92,3.36,IN,1693126416
303,andergrove,-21.0833,149.1833,19.51,81,0,5.79,AU,1693126417
304,phan rang-thap cham,11.5667,108.9833,33.43,54,98,1.0,VN,1693126417
305,labytnangi,66.6572,66.4183,10.93,58,97,4.27,RU,1693126255
306,gowurdak,37.8124,66.0466,23.54,51,96,2.1,TM,1693126418
307,hammerfest,70.6634,23.6821,9.25,81,100,2.06,NO,1693126419
308,dul'durga,50.6761,113.5931,20.11,49,87,1.91,RU,1693126419
309,necochea,-38.5473,-58.7368,2.14,87,0,3.81,AR,1693126419
310,jinzhou,41.1078,121.1417,24.03,57,100,3.47,CN,1693126420
311,antofagasta,-23.65,-70.4,15.6,79,3,0.46,CL,1693126256
312,val-d'or,48.1002,-77.7828,7.05,93,0,1.54,CA,1693126421
313,katsuura,35.1333,140.3,26.03,83,100,4.19,JP,1693126421
314,chonchi,-42.6128,-73.8092,6.73,92,100,2.59,CL,1693126422
315,el calafate,-50.3408,-72.2768,1.27,88,97,0.85,AR,1693126422
316,port angeles,48.1181,-123.4307,20.87,69,0,3.09,US,1693126423
317,sinop,41.7711,34.8709,27.44,30,0,4.58,TR,1693126423
318,akureyri,65.6835,-18.0878,9.96,93,75,1.54,IS,1693126424
319,mawu,29.5923,107.3139,19.85,94,100,0.55,CN,1693126424
320,t'aebaek,37.1759,128.9889,19.82,85,100,1.69,KR,1693126151
321,la gi,10.6667,107.7833,30.64,70,95,5.65,VN,1693126425
322,sitka,57.0531,-135.33,13.85,95,25,1.64,US,1693126425
323,mao,39.8885,4.2658,25.31,73,20,9.26,ES,1693126426
324,ruthin,53.1137,-3.3178,15.14,91,100,0.45,GB,1693126427
325,inyonga,-6.7167,32.0667,30.99,26,0,4.5,TZ,1693126427
326,gamay,12.3854,125.2979,29.06,72,97,5.37,PH,1693126428
327,umea,63.8284,20.2597,16.96,72,0,6.69,SE,1693126405
328,gongzhuling,43.5008,124.8198,21.66,66,100,2.97,CN,1693126428
329,verkhovazh'ye,60.7472,42.0465,8.78,88,100,4.08,RU,1693126429
330,klyuchi,52.2667,79.1667,22.52,53,100,4.34,RU,1693126429
331,fortuna,40.5982,-124.1573,14.96,95,100,0.0,US,1693126431
332,salahonda,2.1019,-78.7217,26.6,83,4,2.93,CO,1693126431
333,kingston,17.997,-76.7936,28.53,88,75,2.06,JM,1693126281
334,mora,11.0461,14.1401,24.56,77,100,0.97,CM,1693126432
335,trelissac,45.1977,0.7862,19.92,78,5,3.17,FR,1693126433
336,viedma,-40.8135,-62.9967,4.3,41,4,4.37,AR,1693126140
337,eyl,7.9803,49.8164,33.27,44,66,11.2,SO,1693126433
338,mersa matruh,31.3525,27.2453,30.11,66,0,5.66,EG,1693126434
339,alaghsas,17.0187,8.0168,31.94,55,0,5.14,NE,1693126434
340,carmarthen,51.8555,-4.3054,16.06,45,100,6.69,GB,1693126435
341,arraial do cabo,-22.9661,-42.0278,18.3,82,96,6.1,BR,1693126435
342,taoudenni,22.6783,-3.9836,37.78,26,5,5.88,ML,1693126436
343,rio preto da eva,-2.6994,-59.6997,23.08,70,1,1.14,BR,1693126436
344,porto barra do ivinheima,-22.9667,-53.6667,16.22,82,76,1.33,BR,1693126437
345,fale old settlement,-9.3852,-171.2468,28.13,74,47,5.73,TK,1693126437
346,aasiaat,68.7098,-52.8699,3.28,94,100,2.32,GL,1693126438
347,nogliki,51.8333,143.1667,11.0,92,100,1.01,RU,1693126438
348,port saint john's,-31.6229,29.5448,18.84,47,62,5.48,ZA,1693126438
349,virton,49.5682,5.5326,17.36,75,79,4.09,BE,1693126439
350,nagqu,31.5,92.0,13.95,45,29,0.69,CN,1693126144
351,villa de soto,-30.8552,-64.9995,7.83,55,5,3.05,AR,1693126441
352,carnarvon,-24.8667,113.6333,22.97,52,0,5.06,AU,1693126441
353,shangqiu,34.45,115.65,17.96,96,100,8.89,CN,1693126442
354,saipan,15.1355,145.701,28.69,80,100,6.22,MP,1693126442
355,crane,31.3974,-102.3501,26.76,45,18,2.16,US,1693126443
356,khanty-mansiysk,61.0042,69.0019,15.06,47,0,2.0,RU,1693126443
357,kavaratti,10.5669,72.642,27.37,76,100,2.59,IN,1693126444
358,yangambi,0.8102,24.4336,23.17,92,100,0.47,CD,1693126444
359,chambas,22.1928,-78.9136,24.02,88,31,0.94,CU,1693126164
360,brisas barra de suchiate,14.55,-92.2167,26.81,81,100,1.99,MX,1693126445
361,itaituba,-4.2761,-55.9836,22.44,85,62,0.46,BR,1693126446
362,malango,-2.9627,119.9001,22.54,84,52,1.56,ID,1693126446
363,la sarre,48.8002,-79.1996,5.32,92,0,1.21,CA,1693126447
364,xapuri,-10.6517,-68.5044,23.2,72,16,0.52,BR,1693126447
365,dubno,50.4169,25.7343,25.63,52,97,3.18,UA,1693126448
366,callao,-12.0667,-77.15,20.4,73,100,4.12,PE,1693126448
367,chernyshevskiy,63.0128,112.4714,22.61,33,26,2.32,RU,1693126448
368,tommot,58.9564,126.2925,19.31,69,21,0.12,RU,1693126449
369,barranca,-10.75,-77.7667,18.5,82,97,3.48,PE,1693126450
370,mata-utu,-13.2816,-176.1745,27.24,78,97,10.15,WF,1693126450
371,yongchuan,29.3514,105.8947,26.9,65,89,0.97,CN,1693126451
372,belmonte,-15.8631,-38.8828,23.18,92,100,0.75,BR,1693126451
373,natal,-5.795,-35.2094,24.12,100,75,1.54,BR,1693126452
374,mineros,-17.1167,-63.2333,20.27,30,58,3.03,BO,1693126452
375,presque isle,46.6811,-68.0159,13.24,82,21,0.89,US,1693126453
376,port augusta,-32.5,137.7667,11.19,81,0,3.86,AU,1693126453
377,saint-philippe,-21.3585,55.7679,25.77,79,16,7.08,RE,1693126454
378,kwang binh,17.4833,106.6,34.35,52,73,6.2,VN,1693126454
379,marion,39.7684,-86.1555,21.21,88,0,3.09,US,1693126455
380,vorkuta,67.5,64.0,5.26,96,100,6.61,RU,1693126455
381,bain-de-bretagne,47.8442,-1.6849,16.79,82,29,5.38,FR,1693126456
382,cruzeiro do sul,-29.5128,-51.9853,6.95,95,2,0.65,BR,1693126456
383,tanumah,27.1,44.1333,40.96,9,5,1.19,SA,1693126456
384,timimoun,29.2639,0.231,34.21,13,0,4.63,DZ,1693126457
385,kyren,51.6828,102.1408,23.92,50,58,1.81,RU,1693126457
386,gremyachinsk,58.5603,57.851,11.19,74,100,1.59,RU,1693126458
387,karpinsk,59.7654,60.0085,13.03,61,100,1.42,RU,1693126458
388,college,64.8569,-147.8028,18.99,65,100,0.0,US,1693126459
389,flying fish cove,-10.4217,105.6791,25.82,73,75,6.17,CX,1693126459
390,lodwar,3.1191,35.5973,32.97,32,18,5.85,KE,1693126460
391,orchard homes,46.8633,-114.0484,16.85,62,0,1.34,US,1693126461
392,bratsk,56.1325,101.6142,19.27,72,76,1.78,RU,1693126462
393,uberaba,-19.7483,-47.9319,16.32,94,75,0.0,BR,1693126462
394,gobabis,-22.45,18.9667,19.04,11,60,7.37,NA,1693126206
395,mando,10.7167,6.5667,26.57,82,95,1.72,NG,1693126463
396,leticia,-4.2153,-69.9406,22.03,100,0,1.03,CO,1693126464
397,mayya,61.7333,130.2811,23.62,55,18,0.76,RU,1693126464
398,quiberon,47.4841,-3.1196,17.78,80,66,8.14,FR,1693126465
399,borovskoy,53.8,64.15,17.52,37,77,2.57,KZ,1693126465
400,gilgit,35.9221,74.3087,29.1,32,21,1.83,PK,1693126465
401,porbandar,21.6422,69.6093,28.89,68,100,7.05,IN,1693126466
402,akademgorodok,54.8523,83.106,21.72,58,100,1.35,RU,1693126467
403,acapulco de juarez,16.8634,-99.8901,25.96,86,23,1.87,MX,1693126468
404,oranjestad,12.524,-70.027,27.97,95,20,2.06,AW,1693126468
405,nampula,-15.1165,39.2666,26.97,54,40,5.66,MZ,1693126469
406,afif,23.9065,42.9172,40.45,7,97,6.82,SA,1693126469
407,klaksvik,62.2266,-6.589,9.51,87,47,4.64,FO,1693126469
408,usinsk,65.9939,57.5281,6.53,89,100,3.06,RU,1693126470
409,conde,-7.2597,-34.9075,22.7,100,75,2.06,BR,1693126470
410,muravlenko,63.7898,74.523,15.63,53,96,4.65,RU,1693126471
411,nyagan,62.1406,65.3936,13.98,52,96,1.86,RU,1693126471
412,corcoran,36.098,-119.5604,22.16,43,0,4.1,US,1693126472
413,broome,42.2506,-75.833,16.22,94,12,1.58,US,1693126472
414,gorom-gorom,14.4439,-0.2361,29.33,58,100,5.21,BF,1693126473
415,wamba,8.9333,8.6,23.24,95,95,2.12,NG,1693126253
416,ambon,-3.6954,128.1814,25.56,82,27,7.69,ID,1693126474
417,manicore,-5.8092,-61.3003,22.56,82,37,1.21,BR,1693126474
418,tafresh,34.692,50.013,25.49,34,0,4.37,IR,1693126475
419,las tablas,7.7667,-80.2833,26.76,99,100,1.99,PA,1693126475
420,rawson,-43.3002,-65.1023,6.37,47,100,5.37,AR,1693126476
421,ilebo,-4.3167,20.5833,36.31,32,6,1.16,CD,1693126476
422,santa rosalia,27.3167,-112.2833,30.48,47,3,1.7,MX,1693126476
423,guerrero negro,27.9769,-114.0611,20.77,82,44,4.39,MX,1693126477
424,daru,-9.0763,143.2092,24.28,80,100,8.15,PG,1693126478
425,lenggries,47.6833,11.5667,16.69,92,100,1.61,DE,1693126478
426,galle,6.0367,80.217,29.31,69,68,4.5,LK,1693126313
427,arar,30.9753,41.0381,37.01,14,0,2.57,SA,1693126479
428,pangody,65.85,74.4859,16.58,47,51,4.66,RU,1693126479
429,koga,33.7333,130.4667,27.31,89,75,3.09,JP,1693126361
430,llanes,43.4198,-4.7549,18.35,73,54,6.67,ES,1693126480
431,dame-marie,18.5667,-74.4167,26.3,79,65,1.27,HT,1693126481
432,mahina,-17.5065,-149.489,23.87,64,0,2.06,PF,1693126481
433,zastron,-30.3023,27.084,10.75,18,0,1.87,ZA,1693126482
434,bernkastel-kues,49.9167,7.0667,18.69,77,0,2.57,DE,1693126482
435,jieshi,22.8134,115.8257,29.57,75,30,3.72,CN,1693126483
436,leava,-14.3,-178.1667,26.0,78,100,10.97,WF,1693126483
437,port-gentil,-0.7193,8.7815,26.98,78,75,6.17,GA,1693126484
438,north bay,46.3168,-79.4663,11.01,76,40,3.09,CA,1693126484
439,ixtapa,20.7,-105.2,26.24,88,98,1.17,MX,1693126484
440,colchani,-20.3,-66.9333,0.98,36,32,2.91,BO,1693126485
441,tantou,26.0314,119.5986,29.87,79,40,3.0,CN,1693126485
442,swift current,50.2834,-107.8014,16.45,67,0,3.09,CA,1693126486
443,betio village,1.358,172.9211,29.02,75,32,2.81,KI,1693126486
444,daejeon,36.3333,127.4167,25.97,77,100,1.5,KR,1693126073
445,opuwo,-18.0607,13.84,27.52,9,0,8.93,NA,1693126487
446,decatur,39.8403,-88.9548,19.89,87,100,5.05,US,1693126487
447,luganville,-15.5333,167.1667,23.04,71,100,4.47,VU,1693126488
448,kayes,14.0,-11.0,27.83,75,100,5.07,ML,1693126488
449,gopalpur,19.2667,84.9167,30.03,75,57,5.77,IN,1693126489
450,navarcles,41.7517,1.9036,19.86,80,99,0.53,ES,1693126489
451,lima duarte,-21.8425,-43.7931,13.31,95,99,1.15,BR,1693126490
452,sault ste. marie,46.5168,-84.3333,11.31,92,0,1.54,CA,1693126490
453,codrington,-38.2667,141.9667,11.84,83,100,3.46,AU,1693126491
454,praia da vitoria,38.7333,-27.0667,22.64,83,75,7.0,PT,1693126491
455,mezhdurechenskiy,59.6,65.9333,15.05,66,100,2.04,RU,1693126492
456,houghton,47.1219,-88.569,7.58,96,2,0.45,US,1693126492
457,karabash,55.4808,60.2157,11.89,62,93,3.13,RU,1693126493
458,gaigeturi,33.4644,126.3183,31.03,62,20,8.23,KR,1693126486
459,yatou,37.15,122.3833,20.03,88,100,1.47,CN,1693126493
460,remire-montjoly,4.9167,-52.2667,24.02,94,20,0.0,GF,1693126494
461,yeraliyev,43.2,51.65,25.12,35,1,4.75,KZ,1693126495
462,haiku-pauwela,20.9219,-156.3051,24.47,78,4,7.15,US,1693126495
463,xilin hot,43.9667,116.0333,23.96,23,0,5.17,CN,1693126496
464,auki,-8.7676,160.7034,24.06,89,100,2.34,SB,1693126496
465,kupang,-10.1667,123.5833,26.87,59,10,2.83,ID,1693126497
466,esil,51.9556,66.4042,19.37,37,94,5.01,KZ,1693126497
467,arenapolis,-14.4503,-56.8461,21.94,65,4,0.98,BR,1693126497
468,kodinsk,58.6881,99.1844,22.64,44,46,0.44,RU,1693126498
469,patnanungan,14.7833,122.1833,27.13,84,100,11.64,PH,1693126498
470,al kharijah,25.4514,30.5464,40.87,16,0,6.54,EG,1693126499
471,nar'yan-mar,67.6713,53.087,8.81,88,100,5.76,RU,1693126499
472,swakopmund,-22.6833,14.5333,16.4,61,0,1.24,NA,1693126202
473,mongoumba,3.6415,18.5936,31.31,54,98,1.14,CF,1693126500
474,emerald,-23.5333,148.1667,20.75,30,0,3.89,AU,1693126302
475,chipiona,36.7366,-6.437,22.1,56,0,6.17,ES,1693126501
476,tannum sands,-23.9504,151.3693,20.94,60,0,5.66,AU,1693126502
477,san antonio de pale,-1.4014,5.6325,23.86,85,97,5.86,GQ,1693126502
478,mountain home,43.133,-115.6912,24.52,47,0,6.17,US,1693126503
479,nouadhibou,20.931,-17.0347,28.99,48,6,7.2,MR,1693126504
480,norfolk,42.1668,-71.2495,19.53,94,0,2.06,US,1693126504
481,saint-pierre,-21.3393,55.4781,26.43,65,75,3.09,RE,1693126504
482,mandiana,10.6333,-8.6833,24.28,84,99,1.97,GN,1693126505
483,dompu,-8.5356,118.4622,28.17,58,79,0.27,ID,1693126505
484,bandon,51.7469,-8.7425,13.77,96,100,5.51,IE,1693126506
485,sampit,-2.5333,112.95,30.58,55,78,3.11,ID,1693126506
486,saint-francois,46.4154,3.9054,15.69,88,75,4.63,FR,1693126507
487,san patricio,28.017,-97.5169,28.24,86,0,2.15,US,1693126507
488,san pedro pochutla,15.7333,-96.4667,24.84,89,59,1.69,MX,1693126508
489,kittila,67.6647,24.8936,17.56,72,0,1.03,FI,1693126508
490,kroonstad,-27.6504,27.2349,15.84,21,0,3.32,ZA,1693126509
491,phalaborwa,-23.943,31.1411,20.6,33,3,7.55,ZA,1693126509
492,dikhil,11.5,42.1667,36.6,25,20,2.28,DJ,1693126510
493,peace river,56.2501,-117.286,18.14,88,0,2.06,CA,1693126511
494,ishikawa,26.4233,127.8214,30.41,74,40,2.06,JP,1693126512
495,batticaloa,7.7102,81.6924,31.16,64,38,6.85,LK,1693126266
496,tokar,18.4254,37.729,41.54,27,65,9.61,SD,1693126263
497,kingscliff,-28.2667,153.5667,19.29,82,75,2.06,AU,1693126513
498,stornoway,58.2093,-6.3865,12.98,87,75,1.54,GB,1693126513
499,east london,-33.0153,27.9116,17.52,42,0,8.75,ZA,1693126514
500,fort frances,48.5999,-93.4003,10.09,92,77,2.54,CA,1693126514
501,burela de cabo,43.65,-7.4,19.54,73,37,5.09,ES,1693126515
502,undurkhaan,47.3194,110.6556,19.5,53,84,5.63,MN,1693126515
503,city of balikpapan,-1.242,116.8942,28.27,71,7,4.22,ID,1693126516
504,port macquarie,-31.4333,152.9167,16.05,76,46,2.18,AU,1693126516
505,suntar,62.1444,117.6319,24.81,34,9,2.44,RU,1693126516
506,rumuruti,0.267,36.5389,27.41,24,9,3.11,KE,1693126517
507,mogocha,53.7333,119.7667,20.36,38,100,1.97,RU,1693126517
508,grand falls-windsor,48.9332,-55.6649,14.17,93,100,0.45,CA,1693126518
509,goure,13.9835,10.2704,33.56,40,83,5.49,NE,1693126518
510,tenenkou,14.4572,-4.9169,27.54,65,97,2.9,ML,1693126519
511,palmer,42.1584,-72.3287,18.33,75,0,1.85,US,1693126519
512,sathupalli,17.2497,80.869,30.47,70,87,5.13,IN,1693126520
513,westport,41.1415,-73.3579,20.87,84,0,0.89,US,1693126520
514,queenstown,-31.8976,26.8753,11.73,38,1,0.6,ZA,1693126521
515,embi,48.8264,58.1442,18.53,28,92,7.43,KZ,1693126521
516,mount isa,-20.7333,139.5,25.87,22,0,3.6,AU,1693126481
517,jaisalmer,26.9147,70.9181,37.14,31,34,6.68,IN,1693126444
518,keetmanshoop,-26.5833,18.1333,16.3,11,0,9.33,NA,1693126522
519,valparaiso,-33.0393,-71.6273,7.8,87,0,2.57,CL,1693126523
520,merlo,-32.3429,-65.014,8.91,61,86,2.55,AR,1693126523
521,torghay,49.6339,63.4981,16.75,49,100,7.78,KZ,1693126524
522,kundiawa,-6.0167,144.9667,17.69,99,100,0.93,PG,1693126524
523,halmeu,47.9667,23.0167,32.21,27,0,3.53,RO,1693126525
524,san jose del guaviare,2.5729,-72.6459,22.06,97,10,0.46,CO,1693126525
525,akbarabad,29.2464,52.7793,35.79,8,0,5.82,IR,1693126526
526,kapa'a,22.0752,-159.319,25.05,69,3,1.34,US,1693126526
527,bamboo flat,11.7,92.7167,28.05,83,75,4.12,IN,1693126527
528,sao felix do xingu,-6.6447,-51.995,22.1,90,85,0.05,BR,1693126528
529,al hazm,16.1641,44.7769,39.3,7,9,6.0,YE,1693126528
530,heroica caborca,30.7167,-112.15,32.69,42,80,0.91,MX,1693126529
531,bedford,52.1346,-0.4663,17.63,79,20,5.14,GB,1693126384
532,axim,4.8699,-2.2405,25.73,84,90,4.0,GH,1693126530
533,kidal,18.4411,1.4078,32.1,45,59,2.57,ML,1693126530
534,kolpashevo,58.3131,82.9089,20.69,49,87,3.74,RU,1693126531
535,caleta de carquin,-11.0925,-77.6267,18.27,86,55,4.0,PE,1693126532
536,junin de los andes,-39.9504,-71.0694,-2.92,74,5,2.52,AR,1693126532
537,kendari,-3.945,122.4989,26.48,62,9,3.24,ID,1693126533
538,nhamunda,-2.1861,-56.7131,23.29,67,19,0.21,BR,1693126533
539,hirara,24.8,125.2833,31.15,74,20,3.6,JP,1693126463
540,humaita,-7.5061,-63.0208,22.94,83,23,1.04,BR,1693126534
541,roanoke,37.271,-79.9414,22.72,93,21,1.12,US,1693126535
542,rabo de peixe,37.8,-25.5833,21.73,73,20,1.54,PT,1693126535
543,garden city,42.3256,-83.331,14.36,89,0,3.68,US,1693126536
544,aral,40.5156,81.2636,34.21,10,95,4.13,CN,1693126536
545,sigli,5.3848,95.9609,29.15,75,100,3.52,ID,1693126536
546,campo formoso,-10.5075,-40.3214,18.75,54,0,0.31,BR,1693126537
547,songling,31.1933,120.7176,29.95,70,100,6.41,CN,1693126537
548,nuuk,64.1835,-51.7216,5.49,93,96,10.73,GL,1693126538
549,ambodifotatra,-16.9833,49.85,23.99,76,7,4.3,MG,1693126538
550,walvis bay,-22.9575,14.5053,18.01,50,0,1.08,NA,1693126251
551,plastun,44.7561,136.2939,19.14,92,100,1.54,RU,1693126539
552,prieska,-29.6641,22.7474,15.53,19,0,7.0,ZA,1693126540
553,koster,-25.863,26.8976,17.95,8,4,4.75,ZA,1693126540
554,hargeysa,9.56,44.065,31.0,27,8,10.59,SO,1693126394
555,sirte,31.2089,16.5887,30.05,48,0,1.94,LY,1693126541
556,canutama,-6.5339,-64.3831,24.01,64,68,0.92,BR,1693126542
557,ancud,-41.8697,-73.8203,4.86,86,75,4.55,CL,1693126542
558,qarauyl,48.9451,79.255,32.12,22,67,5.47,KZ,1693126542
559,pagar alam,-4.0167,103.2667,26.15,73,47,0.94,ID,1693126543
560,kostomuksha,64.571,30.5767,17.47,55,71,2.34,RU,1693126543
561,barra de santo antonio,-9.4047,-35.5072,22.6,96,50,3.94,BR,1693126544
562,markovo,57.3206,107.0881,22.09,60,99,1.38,RU,1693126545
563,yuzhno-kurilsk,44.0306,145.8556,20.22,99,100,3.83,RU,1693126513
564,holualoa,19.6228,-155.9522,22.65,87,72,1.34,US,1693126546
565,taulaga,-11.0553,-171.0883,27.79,78,12,5.74,AS,1693126546
566,kolonia town,6.964,158.206,26.79,84,100,8.88,FM,1693126547
567,charata,-27.2144,-61.188,9.41,58,0,3.32,AR,1693126547
568,petal,31.3466,-89.2601,29.02,75,0,0.0,US,1693126548
569,kenora,49.8167,-94.4337,14.54,94,40,3.6,CA,1693126548
570,vizinga,61.0749,50.1031,6.88,95,100,2.28,RU,1693126549
571,denton,33.2001,-97.1336,31.05,68,14,0.45,US,1693126549
572,sinabang,2.4803,96.3801,28.41,75,66,0.81,ID,1693126550
573,skovorodino,53.9833,123.9167,20.55,39,99,2.58,RU,1693126550
574,neiafu,-18.65,-173.9833,22.58,69,100,9.26,TO,1693126551
575,fiambala,-27.6871,-67.6149,4.42,65,4,0.54,AR,1693126551
576,porto murtinho,-21.6989,-57.8825,17.25,30,92,3.66,BR,1693126552
