City_ID,City,Lat,Lng,Max Temp,Humidity,Cloudiness,Wind Speed,Country,Date
0,tolanaro,-25.0319,46.9987,21.42,60,86,5.26,MG,1693303899
1,belmonte,-15.8631,-38.8828,22.26,94,99,3.2,BR,1693303899
2,grytviken,-54.2811,-36.5092,1.18,91,99,5.06,GS,1693303900
3,keflavik,64.0049,-22.5624,11.95,82,40,4.12,IS,1693303901
4,la sarre,48.8002,-79.1996,12.41,91,100,1.78,CA,1693303901
5,ngawi,-7.4038,111.4461,32.42,38,10,4.45,ID,1693303902
6,papatowai,-46.5619,169.4708,7.88,90,57,2.66,NZ,1693303902
7,mbuji-mayi,-6.15,23.6,35.2,21,3,3.76,CD,1693303903
8,wailua homesteads,22.0669,-159.378,26.44,82,40,6.69,US,1693303903
9,zaoyang,32.1272,112.7542,25.32,68,97,2.65,CN,1693303789
10,kapa'a,22.0752,-159.319,27.18,79,40,6.69,US,1693303904
11,cabo san lucas,22.8909,-109.9124,30.28,75,21,2.76,MX,1693303904
12,undurkhaan,47.3194,110.6556,21.97,39,73,2.48,MN,1693303905
13,dalbandin,28.8947,64.4101,39.94,9,0,2.09,PK,1693303905
14,edinburgh of the seven seas,-37.0676,-12.3116,10.68,74,68,8.71,SH,1693303906
15,petropavlovsk-kamchatsky,53.0452,158.6483,10.99,100,93,0.41,RU,1693303907
16,olonkinbyen,70.9221,-8.7187,4.6,88,92,4.65,SJ,1693303907
17,fortuna,40.5982,-124.1573,16.19,97,100,3.09,US,1693303908
18,waitangi,-43.9535,-176.5597,8.23,76,44,2.24,NZ,1693303908
19,vilyuchinsk,52.9306,158.4028,11.81,91,74,0.13,RU,1693303909
20,whitehorse,60.7161,-135.0538,17.43,60,0,5.14,CA,1693303909
21,adamstown,-25.066,-130.1015,17.55,87,100,10.03,PN,1693303909
22,gornyy,55.1153,83.9059,22.12,44,51,6.9,RU,1693303910
23,odda,60.0691,6.5457,15.98,77,94,1.81,NO,1693303910
24,tucuma,-0.1833,-50.05,25.5,83,1,3.08,BR,1693303911
25,kapuskasing,49.4169,-82.4331,8.05,93,100,3.09,CA,1693303912
26,astrakhan,46.3497,48.0408,21.93,28,0,7.0,RU,1693303912
27,santa fe,-31.6333,-60.7,9.44,71,0,1.79,AR,1693303912
28,chonchi,-42.6128,-73.8092,6.73,89,100,3.29,CL,1693303913
29,port-aux-francais,-49.35,70.2167,3.13,78,75,13.83,TF,1693303913
30,ormara,25.2088,64.6357,27.23,81,5,7.28,PK,1693303914
31,margaret river,-33.95,115.0667,13.04,74,5,5.86,AU,1693303914
32,hasaki,35.7333,140.8333,29.06,84,91,6.45,JP,1693303915
33,gulbene,57.1777,26.7529,21.88,44,55,1.36,LV,1693303915
34,colonia,50.9333,6.95,19.41,76,40,1.54,DE,1693303916
35,kalaleh,37.3807,55.4916,36.08,18,0,3.68,IR,1693303916
36,tam ky,15.5667,108.4833,29.98,76,89,3.41,VN,1693303862
37,bardai,11.65,7.2333,28.66,61,90,2.83,NG,1693303917
38,puerto ayora,-0.7393,-90.3518,24.19,90,50,3.13,EC,1693303918
39,ust-nera,64.5667,143.2,17.89,61,84,2.15,RU,1693303918
40,tiksi,71.6872,128.8694,10.68,76,52,3.23,RU,1693303919
41,port elizabeth,-33.918,25.5701,31.72,23,0,5.14,ZA,1693303919
42,iqaluit,63.7506,-68.5145,3.85,87,75,2.57,CA,1693303920
43,arraial do cabo,-22.9661,-42.0278,18.92,94,75,2.57,BR,1693303920
44,yellowknife,62.456,-114.3525,15.79,97,20,3.6,CA,1693303921
45,mahdia,35.5047,11.0622,30.97,38,0,3.83,TN,1693303922
46,saucillo,28.0167,-105.2833,24.02,58,82,2.57,MX,1693303922
47,bethel,41.3712,-73.414,19.31,89,100,0.0,US,1693303923
48,kurmuk,10.55,34.2833,27.29,70,93,2.38,SD,1693303924
49,bilibino,68.0546,166.4372,7.78,89,100,3.37,RU,1693303925
50,alegrete,-29.7831,-55.7919,4.94,93,0,4.07,BR,1693303925
51,vidalia,32.2177,-82.4135,24.97,94,0,0.0,US,1693303926
52,punta arenas,-53.15,-70.9167,2.68,83,100,3.46,CL,1693303927
53,lihue,21.9789,-159.3672,26.77,77,40,6.69,US,1693303927
54,hawaiian paradise park,19.5933,-154.9731,21.73,95,100,4.12,US,1693303928
55,utrik,11.2278,169.8474,28.41,78,98,6.09,MH,1693303928
56,tamale,9.4008,-0.8393,27.83,71,62,2.85,GH,1693303929
57,uturoa,-16.7333,-151.4333,25.22,81,74,9.46,PF,1693303929
58,puerto natales,-51.7236,-72.4875,-0.63,90,97,0.96,CL,1693303930
59,tura,25.5198,90.2201,30.4,67,96,1.14,IN,1693303930
60,port mathurin,-19.6833,63.4167,22.89,65,5,7.59,MU,1693303931
61,bredasdorp,-34.5322,20.0403,27.49,30,0,4.2,ZA,1693303931
62,invercargill,-46.4,168.35,9.45,91,62,0.45,NZ,1693303829
63,kaohsiung,22.6163,120.3133,29.05,90,75,2.57,TW,1693303626
64,mornington,-38.2167,145.0333,17.39,70,100,1.34,AU,1693303933
65,ribeira grande,38.5167,-28.7,23.22,94,75,5.66,PT,1693303929
66,atafu village,-8.5421,-172.5159,28.32,80,12,6.68,TK,1693303934
67,ribadavia,42.288,-8.1436,22.65,56,62,2.37,ES,1693303934
68,tilcara,-23.5776,-65.3509,3.96,25,100,4.33,AR,1693303935
69,hermanus,-34.4187,19.2345,28.22,42,0,4.38,ZA,1693303936
70,avarua,-21.2078,-159.775,18.03,82,21,1.03,CK,1693303936
71,san patricio,28.017,-97.5169,29.35,73,1,1.77,US,1693303936
72,shalqar,47.8333,59.6,19.44,26,17,7.7,KZ,1693303937
73,truth or consequences,33.1284,-107.2528,23.13,60,0,4.63,US,1693303937
74,talnakh,69.4865,88.3972,15.67,56,38,3.82,RU,1693303938
75,brigantine,39.4101,-74.3646,22.79,94,100,5.14,US,1693303938
76,albany,42.6001,-73.9662,18.58,94,93,1.21,US,1693303939
77,chipinge,-20.1883,32.6236,16.54,50,59,3.59,ZW,1693303939
78,saint-philippe,-21.3585,55.7679,24.77,76,18,5.74,RE,1693303940
79,ushuaia,-54.8,-68.3,1.28,94,100,4.02,AR,1693303940
80,badger,64.8,-147.5333,11.51,91,75,1.54,US,1693303941
81,cidreira,-30.1811,-50.2056,11.79,80,3,4.74,BR,1693303942
82,palopo,-2.9996,120.1921,26.21,78,6,1.01,ID,1693303942
83,puerto deseado,-47.7503,-65.8938,5.64,69,62,6.87,AR,1693303943
84,crane,31.3974,-102.3501,23.9,51,0,4.04,US,1693303943
85,thompson,55.7435,-97.8558,4.09,100,100,1.03,CA,1693303944
86,saudarkrokur,65.7461,-19.6394,9.34,78,100,0.18,IS,1693303945
87,blackmans bay,-43.0167,147.3167,13.07,87,100,1.03,AU,1693303945
88,lebu,-37.6167,-73.65,7.95,76,89,1.88,CL,1693303945
89,san pedro pochutla,15.7333,-96.4667,24.28,89,100,1.26,MX,1693303946
90,sitka,57.0531,-135.33,16.94,82,0,0.0,US,1693303946
91,dolbeau-mistassini,48.8763,-72.212,14.36,83,86,2.51,CA,1693303947
92,pisco,-13.7,-76.2167,17.03,82,100,1.03,PE,1693303947
93,st. john's,47.5649,-52.7093,16.65,91,40,7.72,CA,1693303948
94,eyl,7.9803,49.8164,34.69,39,9,12.6,SO,1693303948
95,qaqortoq,60.7167,-46.0333,8.52,58,100,0.56,GL,1693303949
96,fisterra,42.9049,-9.2629,21.12,79,87,4.81,ES,1693303949
97,tazacorte,28.629,-17.9293,25.64,74,20,7.2,ES,1693303950
98,woodbury,42.3833,-96.0336,18.16,63,0,2.64,US,1693303950
99,banlung,13.7468,107.0045,25.73,92,100,1.24,KH,1693303951
100,maceio,-9.6658,-35.7353,23.69,100,20,1.54,BR,1693303911
101,ulladulla,-35.35,150.4667,15.09,68,28,2.54,AU,1693303952
102,redencao,-4.2258,-38.7306,24.72,84,25,1.77,BR,1693303952
103,arroyito,-31.4202,-63.05,7.22,60,0,2.43,AR,1693303953
104,siracusa,37.0881,15.2792,29.77,41,0,2.8,IT,1693303953
105,saipan,15.1355,145.701,27.39,83,75,0.0,MP,1693303888
106,ilulissat,69.2167,-51.1,6.01,81,75,1.03,GL,1693303954
107,kargasok,59.0556,80.8572,19.72,50,11,5.66,RU,1693303955
108,campbell river,50.0163,-125.2446,16.44,99,100,0.7,CA,1693303955
109,pacific grove,36.6177,-121.9166,15.06,89,100,2.24,US,1693303956
110,rexburg,43.826,-111.7897,12.99,71,0,0.0,US,1693303956
111,booue,-0.0921,11.9385,28.47,70,100,0.28,GA,1693303957
112,queenstown,-31.8976,26.8753,24.67,11,0,5.59,ZA,1693303957
113,mana,5.6592,-53.7767,25.29,90,8,2.67,GF,1693303958
114,rakops,-21.0167,24.3333,21.5,28,2,5.69,BW,1693303958
115,stanley,54.868,-1.6985,17.09,72,20,6.17,GB,1693303959
116,xucheng,20.35,110.1288,27.32,86,99,3.78,CN,1693303959
117,cold lake,54.4502,-110.2017,11.97,100,0,1.54,CA,1693303960
118,klyuchi,52.2667,79.1667,24.16,30,2,4.29,RU,1693303960
119,krasnapollye,53.3337,31.4014,24.75,51,65,2.98,BY,1693303961
120,geraldton,-28.7667,114.6,19.23,77,0,7.2,AU,1693303961
121,kayangel,8.0823,134.7173,28.1,84,93,5.77,PW,1693303962
122,hadibu,12.65,54.0333,29.87,61,13,10.76,YE,1693303962
123,tofol,5.3248,163.0078,29.13,74,99,4.06,FM,1693303963
124,yuzhno-kurilsk,44.0306,145.8556,14.71,91,23,2.64,RU,1693303963
125,chelmno,53.3485,18.4251,20.68,70,100,5.28,PL,1693303964
126,hithadhoo,-0.6,73.0833,27.91,72,57,2.47,MV,1693303964
127,aban,56.67,96.06,31.27,44,83,1.18,RU,1693303965
128,luwuk,-0.9516,122.7875,25.34,80,26,3.5,ID,1693303744
129,salinopolis,-0.6136,-47.3561,26.25,80,0,4.33,BR,1693303966
130,altai,46.3722,96.2583,22.33,21,53,1.14,MN,1693303967
131,west island,-12.1568,96.8225,27.99,65,57,4.63,CC,1693303967
132,tabou,4.423,-7.3528,26.02,81,96,3.41,CI,1693303968
133,lerwick,60.1545,-1.1494,14.0,81,100,3.84,GB,1693303968
134,tual,-5.6667,132.75,24.87,88,27,11.06,ID,1693303396
135,obihiro,42.9172,143.2044,18.67,88,100,2.39,JP,1693303858
136,inhambane,-23.865,35.3833,22.99,64,40,2.06,MZ,1693303970
137,uttar char fasson,22.2332,90.7132,31.14,67,97,2.93,BD,1693303970
138,chui,-33.6971,-53.4616,7.47,93,99,0.63,UY,1693303971
139,krasnyy chikoy,50.3643,108.7512,23.45,57,50,0.41,RU,1693303971
140,qamdo,31.1667,97.2333,15.6,42,78,0.5,CN,1693303972
141,bubaque,11.2833,-15.8333,26.94,80,88,4.81,GW,1693303972
142,chefchaouene,35.1688,-5.2636,23.76,16,7,1.22,MA,1693303973
143,farafangana,-22.8167,47.8333,21.31,64,69,5.83,MG,1693303974
144,aasiaat,68.7098,-52.8699,2.29,93,34,2.36,GL,1693303975
145,flying fish cove,-10.4217,105.6791,24.82,83,100,4.63,CX,1693303976
146,kabalo,-6.05,26.9167,34.74,20,34,4.39,CD,1693303977
147,constantia,44.1833,28.65,35.39,48,3,4.39,RO,1693303765
148,bhadrachalam,17.6667,80.8833,31.53,65,11,3.54,IN,1693303979
149,cururupu,-1.8283,-44.8683,25.39,83,4,1.95,BR,1693303980
150,petrolina,-9.3986,-40.5008,25.03,69,0,4.63,BR,1693303950
151,enewetak,11.3474,162.3373,28.74,80,90,8.17,MH,1693303981
152,georgetown,5.4112,100.3354,30.53,79,20,2.57,MY,1693303902
153,hirara,24.8,125.2833,29.2,80,48,8.18,JP,1693303704
154,college,64.8569,-147.8028,11.56,88,75,1.54,US,1693303983
155,haiku-pauwela,20.9219,-156.3051,24.47,70,20,3.09,US,1693303984
156,inarajan village,13.2736,144.7484,25.54,81,100,3.62,GU,1693303984
157,mariana,-20.3778,-43.4161,15.97,98,100,0.74,BR,1693303985
158,khandyga,62.6667,135.6,18.62,70,37,0.35,RU,1693303986
159,qulsary,46.9531,54.0198,18.43,35,29,10.31,KZ,1693303987
160,hofors,60.5457,16.2867,17.69,58,1,2.31,SE,1693303987
161,acarau,-2.8856,-40.12,25.42,81,4,5.25,BR,1693303988
162,formosa do rio preto,-11.0483,-45.1931,23.27,76,87,0.09,BR,1693303989
163,hojai,26.0,92.8667,32.11,70,60,1.72,IN,1693303989
164,longyearbyen,78.2186,15.6401,7.91,76,40,5.14,SJ,1693303990
165,hami,42.8,93.45,36.8,8,81,14.0,CN,1693303906
166,jamestown,42.097,-79.2353,17.8,100,100,0.0,US,1693303991
167,mar del plata,-38.0023,-57.5575,8.94,90,0,4.63,AR,1693303991
168,emerald,-23.5333,148.1667,19.63,45,20,4.28,AU,1693303992
169,dudinka,69.4058,86.1778,15.9,44,12,4.01,RU,1693303733
170,kingston,17.997,-76.7936,26.25,90,75,1.42,JM,1693303948
171,jiaojiang,28.6803,121.4428,25.0,90,90,2.88,CN,1693303994
172,northam,51.0333,-4.2167,16.48,94,80,3.78,GB,1693303994
173,yaren,-0.5472,166.916,28.85,73,18,3.01,NR,1693303995
174,cill airne,52.05,-9.5167,16.03,77,40,4.12,IE,1693303995
175,frontera,26.9333,-101.45,27.72,60,1,1.34,MX,1693303996
176,novomichurinsk,54.0384,39.7479,17.95,42,39,0.41,RU,1693303996
177,hamilton,39.1834,-84.5333,16.11,90,0,0.89,US,1693303744
178,anadyr,64.75,177.4833,8.28,93,75,4.0,RU,1693303997
179,erbil,36.1926,44.0106,35.9,19,40,4.63,IQ,1693303998
180,marsa alam,25.0757,34.8918,33.63,42,4,8.4,EG,1693303998
181,luebo,-5.35,21.4167,36.49,22,3,2.17,CD,1693303999
182,dhidhdhoo,6.8833,73.1,25.11,90,100,11.47,MV,1693303999
183,rio grande,-32.035,-52.0986,11.41,85,87,3.98,BR,1693303777
184,san antonio de pale,-1.4014,5.6325,24.11,85,62,4.71,GQ,1693304000
185,sabang,5.8933,95.3214,28.29,78,80,10.2,ID,1693304000
186,thurso,58.5927,-3.5259,12.14,75,72,5.7,GB,1693304001
187,mayahi,13.9553,7.6712,32.76,40,26,6.04,NE,1693304002
188,holualoa,19.6228,-155.9522,21.94,85,54,0.89,US,1693304002
189,burang,30.25,81.1667,13.74,50,37,4.4,CN,1693304003
190,tromso,69.6496,18.957,13.01,88,75,0.0,NO,1693304004
191,amahai,-3.3333,128.9167,24.68,89,81,4.69,ID,1693304005
192,esquel,-42.9,-71.3167,0.68,94,100,2.97,AR,1693304005
193,hanzhong,33.0728,107.0303,27.4,67,92,0.25,CN,1693304006
194,zhigalovo,54.8097,105.1578,28.3,48,16,0.95,RU,1693304006
195,gadzhiyevo,69.2551,33.3362,14.07,63,100,9.29,RU,1693304007
196,emporia,38.4039,-96.1817,17.11,82,20,0.0,US,1693304007
197,vorgashor,67.5833,63.95,12.14,62,91,2.86,RU,1693304008
198,lascano,-33.6667,-54.2,6.23,95,98,0.34,UY,1693304009
199,smidovich,48.6,133.8167,18.22,80,100,3.16,RU,1693304009
200,sao vicente,-23.9631,-46.3919,19.1,26,27,1.15,BR,1693304010
201,lagoa,39.05,-27.9833,22.38,88,2,6.94,PT,1693304010
202,sydney,-33.8679,151.2073,18.61,79,0,6.69,AU,1693303161
203,lata,40.1629,-8.3327,22.82,50,18,2.72,PT,1693304011
204,al mijlad,11.0333,27.7333,31.64,50,68,4.16,SD,1693303770
205,jiangyou,31.7667,104.7167,21.88,85,100,2.38,CN,1693304012
206,horta,38.5333,-28.6333,22.8,95,75,5.66,PT,1693303984
207,coahuayana de hidalgo,18.7,-103.6583,25.73,93,68,1.49,MX,1693304013
208,palasa,18.7667,84.4167,30.61,65,51,1.88,IN,1693304013
209,fort bragg,35.139,-79.006,23.85,98,40,1.54,US,1693304014
210,sisimiut,66.9395,-53.6735,5.67,94,100,4.72,GL,1693304014
211,kristiansund,63.1115,7.732,16.03,77,75,1.54,NO,1693304015
212,masuda,34.6667,131.85,27.29,76,1,1.83,JP,1693303806
213,kampung sungai ara,5.327,100.2735,30.52,79,20,2.68,MY,1693304016
214,boali,4.8005,18.1275,25.31,84,100,1.83,CF,1693304016
215,isafjordur,66.0755,-23.124,9.02,87,20,1.54,IS,1693304017
216,cepu,-7.1475,111.5906,29.94,53,7,6.65,ID,1693304017
217,nadudvar,47.4167,21.1667,30.12,37,91,5.93,HU,1693304018
218,bandarbeyla,9.4942,50.8122,34.27,42,45,11.63,SO,1693304018
219,veraval,20.9,70.3667,28.36,69,89,4.74,IN,1693304019
220,dul'durga,50.6761,113.5931,21.32,44,96,0.41,RU,1693304019
221,cozumel,20.5083,-86.9458,27.19,92,100,5.23,MX,1693303958
222,kailua-kona,19.6406,-155.9956,24.01,85,42,0.89,US,1693304021
223,carnarvon,-24.8667,113.6333,21.81,64,1,6.52,AU,1693304022
224,port augusta,-32.5,137.7667,21.31,26,97,3.66,AU,1693304023
225,maua,-23.6678,-46.4614,15.2,91,79,1.46,BR,1693303840
226,la passe,45.5549,-0.8967,20.57,60,98,4.7,FR,1693304024
227,colotlan,22.1,-103.2667,16.87,93,100,0.48,MX,1693304025
228,lincoln,40.8,-96.667,19.75,95,0,2.57,US,1693304025
229,quellon,-43.1167,-73.6167,7.27,87,100,7.35,CL,1693303970
230,rio gallegos,-51.6226,-69.2181,6.03,56,0,3.6,AR,1693304003
231,tazovsky,67.4667,78.7,14.87,49,6,5.34,RU,1693304028
232,catabola,-12.15,17.2833,27.39,24,72,4.5,AO,1693303929
233,seabra,-12.4186,-41.7703,19.43,88,95,1.79,BR,1693304029
234,mata-utu,-13.2816,-176.1745,26.95,82,100,11.41,WF,1693304030
235,north augusta,33.5018,-81.9651,22.97,93,0,0.0,US,1693304031
236,essaouira,31.5125,-9.77,29.72,32,0,7.72,MA,1693304032
237,alice springs,-23.7,133.8833,19.75,15,0,3.09,AU,1693304033
238,kodiak,57.79,-152.4072,12.73,94,100,5.14,US,1693304034
239,afaahiti,-17.75,-149.2833,23.93,87,100,8.31,PF,1693304034
240,parras de la fuente,25.4167,-102.1833,21.61,40,43,1.69,MX,1693304035
241,egilsstadir,65.2653,-14.3948,9.95,62,75,1.54,IS,1693304036
242,whangarei,-35.7317,174.3239,9.73,79,92,0.61,NZ,1693304036
243,akureyri,65.6835,-18.0878,9.96,81,40,0.0,IS,1693304037
244,yanam,16.7333,82.2167,36.01,39,8,2.16,IN,1693304039
245,boma,7.0805,-2.1697,25.37,88,96,1.41,GH,1693304040
246,prince rupert,54.3161,-130.3201,16.05,88,100,1.03,CA,1693304041
247,roma,43.2128,-75.4557,19.42,97,75,2.57,US,1693303878
248,pingdu,36.7844,119.9464,22.34,71,0,3.35,CN,1693304044
249,rawai,7.7797,98.3253,30.06,78,88,8.65,TH,1693304045
250,coquimbo,-29.9533,-71.3436,10.85,66,0,2.06,CL,1693304046
251,akkus,40.7931,37.0164,22.25,48,99,5.12,TR,1693304047
252,priozersk,61.0393,30.1291,23.38,95,45,5.31,RU,1693303902
253,nagqu,31.5,92.0,8.79,77,97,2.5,CN,1693304048
254,malpica,43.3228,-8.8105,21.09,71,76,3.25,ES,1693304048
255,salalah,17.0151,54.0924,29.05,84,75,3.6,OM,1693304049
256,posto fiscal rolim de moura,-13.0833,-62.2667,22.79,68,0,0.63,BR,1693304049
257,childress,34.4264,-100.204,22.14,53,0,2.06,US,1693304050
258,kalabo,-14.97,22.6814,28.1,22,64,5.46,ZM,1693304050
259,sur,22.5667,59.5289,34.64,49,95,1.78,OM,1693304051
260,touros,-5.1989,-35.4608,25.36,83,13,3.78,BR,1693304052
261,sorong,-0.8833,131.25,26.45,85,79,6.54,ID,1693304052
262,dunedin,-45.8742,170.5036,10.45,79,98,1.79,NZ,1693304052
263,chillicothe,39.3331,-82.9824,14.58,97,0,0.0,US,1693304053
264,iskateley,67.6803,53.1512,12.28,63,97,2.08,RU,1693304054
265,xai-xai,-25.0519,33.6442,22.61,53,87,4.24,MZ,1693304008
266,makarov,48.6333,142.8,15.59,85,74,2.13,RU,1693304055
267,krasnyy kut,50.95,46.9667,20.78,34,2,7.6,RU,1693304055
268,vila franca do campo,37.7167,-25.4333,22.23,76,43,3.27,PT,1693304056
269,tsiombe,-25.3,45.4833,22.81,49,47,8.3,MG,1693304057
270,jiayuguan,39.8167,98.3,29.42,14,9,13.73,CN,1693303950
271,namsos,64.4662,11.4957,15.03,77,75,1.54,NO,1693304059
272,itacarambi,-15.1022,-44.0919,21.74,88,57,2.29,BR,1693304060
273,santa elena de uairen,4.6167,-61.1333,20.24,82,64,1.36,VE,1693304061
274,rajgarh,28.6333,75.3833,37.96,28,0,3.17,IN,1693304001
275,coracao de jesus,-16.6853,-44.365,18.99,93,89,3.47,BR,1693304062
276,santa cruz,-17.8,-63.1667,16.7,77,20,1.03,BO,1693303882
277,mahibadhoo,3.7833,72.9667,26.11,76,100,8.87,MV,1693304063
278,pedernales,18.0384,-71.744,27.66,73,26,1.73,DO,1693304063
279,monghyr,25.3833,86.4667,35.42,42,100,3.9,IN,1693303920
280,pazaryolu,40.4208,40.771,23.81,41,96,2.48,TR,1693304064
281,as sulayyil,20.4607,45.5779,45.14,9,100,2.59,SA,1693304065
282,fallon,39.4735,-118.7774,21.62,52,0,3.6,US,1693304065
283,muborak,39.2553,65.1528,32.98,10,2,3.57,UZ,1693304066
284,constitucion,-35.3333,-72.4167,8.95,89,1,3.44,CL,1693304066
285,remire-montjoly,4.9167,-52.2667,24.02,100,20,0.0,GF,1693304040
286,ketchikan,55.3422,-131.6461,17.26,82,100,5.14,US,1693304067
287,kavaratti,10.5669,72.642,27.53,80,84,6.32,IN,1693304068
288,portland,45.5234,-122.6762,18.45,76,100,3.09,US,1693304068
289,selfoss,63.9331,-20.9971,12.8,68,6,1.85,IS,1693304069
290,ponta delgada,37.7333,-25.6667,22.4,83,75,3.09,PT,1693304056
291,sunne,59.8376,13.143,17.18,56,19,3.52,SE,1693304070
292,kurchatov,51.6601,35.6521,23.87,47,92,2.64,RU,1693304070
293,borgarnes,64.5383,-21.9206,12.12,72,10,1.96,IS,1693304071
294,la malbaie,47.6575,-70.1559,14.47,81,35,1.82,CA,1693304071
295,luderitz,-26.6481,15.1594,25.6,37,0,5.79,NA,1693304072
296,kampene,-3.6,26.6667,35.48,21,12,1.82,CD,1693304072
297,happy valley-goose bay,53.3168,-60.3315,13.17,82,75,2.06,CA,1693304073
298,kloulklubed,7.0419,134.2556,28.28,84,71,4.9,PW,1693304073
299,nemuro,43.3236,145.575,16.01,90,41,4.6,JP,1693304074
300,mont-dore,-22.2833,166.5833,19.99,89,54,3.86,NC,1693304074
301,loreto,22.2667,-101.9667,16.18,66,99,1.5,MX,1693304052
302,nuuk,64.1835,-51.7216,9.34,87,75,12.35,GL,1693303861
303,ambalangoda,6.2355,80.0538,27.98,77,100,4.64,LK,1693303963
304,lima,-12.0432,-77.0282,19.14,82,100,3.09,PE,1693304076
305,margate,51.3813,1.3862,17.61,62,7,1.79,GB,1693303960
306,kerikeri,-35.2268,173.9474,8.28,88,58,1.09,NZ,1693303899
307,damghan,36.1683,54.348,34.25,16,0,2.06,IR,1693304078
308,worb,46.9298,7.5631,14.77,80,75,1.03,CH,1693304078
309,midleton,51.9153,-8.1805,15.88,74,65,7.05,IE,1693304078
310,papao,-17.75,-149.55,24.82,91,93,9.24,PF,1693304079
311,kotlas,61.2611,46.6556,16.92,49,11,0.77,RU,1693304079
312,kirakira,-10.4544,161.9205,24.83,84,100,3.4,SB,1693304080
313,ujae,8.9322,165.7642,28.82,79,56,5.88,MH,1693304080
314,levashi,42.4304,47.3215,20.06,58,78,3.85,RU,1693304081
315,kristinestad,62.2743,21.376,18.94,73,17,4.12,FI,1693304081
316,floro,61.5996,5.0328,15.54,72,40,5.14,NO,1693304082
317,lake saint louis,38.7976,-90.7857,18.39,93,0,0.0,US,1693304082
318,valparaiso,-33.0393,-71.6273,11.81,73,0,4.16,CL,1693304083
319,gaiman,-43.2897,-65.4929,6.2,55,3,2.34,AR,1693304083
320,mersing,2.4312,103.8405,25.95,100,40,0.0,MY,1693304084
321,al jawf,29.5,38.75,33.74,20,0,5.32,SA,1693304084
322,argo,37.6333,22.7333,29.32,24,2,3.67,GR,1693303849
323,kununurra,-15.7667,128.7333,27.99,26,78,2.57,AU,1693304087
324,fuman,37.2273,49.3142,28.72,53,13,3.51,IR,1693304087
325,tukrah,32.5341,20.5791,33.13,33,1,3.42,LY,1693304088
326,larmor-plage,47.7065,-3.3834,17.79,78,100,1.03,FR,1693304088
327,taksimo,56.3444,114.8794,22.2,51,2,1.24,RU,1693304088
328,al muwayh,22.4333,41.7583,39.54,7,70,7.32,SA,1693304089
329,goure,13.9835,10.2704,33.82,38,100,5.8,NE,1693304090
330,broome,42.2506,-75.833,18.68,90,40,2.06,US,1693304090
331,guane,22.2025,-84.0875,25.65,96,100,12.31,CU,1693304091
332,hlusk,52.903,28.6845,26.92,46,89,4.41,BY,1693304091
333,saint-pourcain-sur-sioule,46.3093,3.2879,18.97,55,3,3.01,FR,1693304092
334,tocopilla,-22.092,-70.1979,17.68,67,14,1.28,CL,1693304063
335,macapa,0.0389,-51.0664,24.99,88,20,0.0,BR,1693303957
336,ad dilam,23.9915,47.1627,45.25,10,6,6.86,SA,1693303938
337,taoudenni,22.6783,-3.9836,39.52,25,22,3.74,ML,1693304093
338,port blair,11.6667,92.75,29.02,74,40,4.12,IN,1693304094
339,leamington,42.0549,-82.6062,14.93,77,0,0.84,CA,1693304094
340,alofi,-19.0595,-169.9187,19.94,88,100,3.6,NU,1693304095
341,kota bharu,6.1333,102.2386,28.59,81,78,0.78,MY,1693303967
342,kudymkar,59.0173,54.656,15.83,51,42,4.04,RU,1693304054
343,bairnsdale,-37.8333,147.6167,13.16,82,98,2.08,AU,1693304097
344,traverse city,44.7631,-85.6206,20.04,71,100,4.12,US,1693304097
345,tarawa,1.419,172.984,29.05,79,100,2.06,KI,1693304098
346,kirensk,57.7853,108.1119,25.63,58,7,1.27,RU,1693304098
347,sao joao da barra,-21.6403,-41.0511,19.05,95,100,1.99,BR,1693304099
348,lobujya,27.95,86.8167,6.56,67,25,2.8,NP,1693304099
349,guerrero negro,27.9769,-114.0611,21.53,80,91,3.79,MX,1693304100
350,batesville,35.7698,-91.641,17.23,94,0,1.54,US,1693304100
351,kourou,5.1552,-52.6478,24.03,87,4,2.84,GF,1693304101
352,mount isa,-20.7333,139.5,18.87,39,42,0.0,AU,1693303874
353,usinsk,65.9939,57.5281,14.58,54,51,2.24,RU,1693304103
354,kruisfontein,-34.0033,24.7314,30.49,15,0,7.24,ZA,1693304104
355,puerto aysen,-45.4,-72.7,4.7,99,100,1.93,CL,1693303964
356,khuzdar,27.7384,66.6434,38.0,8,3,5.61,PK,1693304105
357,minas de marcona,-15.2119,-75.1103,12.23,87,50,3.44,PE,1693304106
358,altamont,42.2068,-121.7372,13.0,85,100,0.0,US,1693304107
359,muang khong,14.1167,105.85,27.56,88,100,0.7,LA,1693304108
360,suva,-18.1416,178.4415,22.71,83,75,2.57,FJ,1693304109
361,taichung,24.1469,120.6839,31.38,76,75,4.12,TW,1693303504
362,conde,-7.2597,-34.9075,23.7,100,100,2.57,BR,1693304110
363,callao,-12.0667,-77.15,20.16,73,100,3.09,PE,1693304111
364,auki,-8.7676,160.7034,25.0,87,100,4.35,SB,1693304111
365,loch garman,52.3342,-6.4575,16.74,92,63,3.13,IE,1693303970
366,woolgoolga,-30.1106,153.2007,15.93,90,49,2.37,AU,1693304112
367,guajara mirim,-10.7828,-65.3394,22.87,59,0,0.28,BR,1693304113
368,udachny,66.4167,112.4,21.92,56,84,1.49,RU,1693304114
369,hovd,48.0056,91.6419,28.86,15,90,7.69,MN,1693304115
370,iranduba,-3.2847,-60.1861,26.16,54,7,1.64,BR,1693304116
371,vila velha,-20.3297,-40.2925,19.97,99,100,0.0,BR,1693304116
372,kirkland lake,48.1446,-80.0377,10.16,100,99,0.0,CA,1693304117
373,jieshou,33.2634,115.3611,25.0,74,41,2.53,CN,1693304117
374,kuqa,41.7278,82.9364,30.99,17,99,0.53,CN,1693304118
375,gisborne,-38.6533,178.0042,5.71,75,0,3.09,NZ,1693303977
376,fiambala,-27.6871,-67.6149,7.82,35,0,0.35,AR,1693304119
377,kanniyakumari,8.0833,77.5667,28.3,77,100,8.6,IN,1693303823
378,amasra,41.7463,32.3863,30.03,54,0,3.9,TR,1693304120
379,vilyuysk,63.7553,121.6247,23.32,48,5,1.46,RU,1693304121
380,jhalida,23.3667,85.9667,31.9,52,100,3.01,IN,1693304122
381,aktobe,50.2797,57.2072,10.05,81,75,7.0,KZ,1693304050
382,namibe,-15.1961,12.1522,23.9,69,45,3.66,AO,1693304123
383,port lincoln,-34.7333,135.8667,13.7,89,48,6.62,AU,1693304123
384,qarauyl,48.9451,79.255,23.42,19,3,3.71,KZ,1693304124
385,aykhal,66.0,111.5,21.57,45,95,4.27,RU,1693304124
386,sines,37.9562,-8.8698,21.27,70,0,6.44,PT,1693303844
387,fuglafjordur,62.244,-6.814,12.26,94,100,6.4,FO,1693304125
388,barcelos,41.5388,-8.6151,22.18,53,44,3.76,PT,1693303893
389,tabatinga,-4.2525,-69.9381,24.05,94,0,1.54,BR,1693304126
390,esmeraldas,-19.7625,-44.3139,18.19,91,6,2.11,BR,1693304127
391,sao gabriel da cachoeira,-0.1303,-67.0892,21.87,94,9,0.81,BR,1693304127
392,el nido,11.1858,119.3956,27.37,83,100,7.61,PH,1693303903
393,lompoc,34.6391,-120.4579,24.88,100,0,0.0,US,1693304128
394,malindi,-3.2175,40.1191,27.63,65,25,9.59,KE,1693304129
395,natal,-5.795,-35.2094,24.36,94,75,2.06,BR,1693303922
396,rudsar,37.1376,50.288,29.99,57,1,3.74,IR,1693304131
397,erechim,-27.6342,-52.2739,5.18,97,1,2.12,BR,1693304131
398,at-bashi,41.1702,75.8106,20.32,24,1,0.27,KG,1693304132
399,dolinsk,47.35,142.8,14.35,88,65,1.37,RU,1693304132
400,tupiza,-21.45,-65.7167,5.58,20,6,2.66,BO,1693304102
401,kill devil hills,36.0307,-75.676,25.55,96,40,0.0,US,1693304133
402,leninskoye,41.7589,69.3864,29.88,15,5,3.73,KZ,1693304134
403,north ward,-19.2454,146.8075,19.95,83,15,0.0,AU,1693304134
404,butha-buthe,-28.8333,28.5,13.92,15,0,2.88,LS,1693304135
405,palangkaraya,-2.2,113.8333,32.08,43,27,0.42,ID,1693303982
406,ulsteinvik,62.3432,5.8487,18.2,79,44,1.34,NO,1693304136
407,buala,-8.145,159.5921,26.45,84,98,4.54,SB,1693304136
408,n'zeto,-7.2312,12.8666,24.75,74,73,4.02,AO,1693304137
409,pasuquin,18.3328,120.6177,24.97,100,100,3.6,PH,1693304138
410,popondetta,-8.7537,148.2534,23.7,88,100,1.16,PG,1693304138
411,nova sintra,14.8667,-24.7167,23.92,76,53,6.6,CV,1693304139
412,prabumulih,-3.45,104.25,31.15,52,95,3.31,ID,1693304139
413,edd,13.9297,41.6925,36.17,51,26,5.66,ER,1693304140
414,port macquarie,-31.4333,152.9167,14.38,86,4,3.23,AU,1693304140
415,ishikawa,26.4233,127.8214,30.18,78,20,5.66,JP,1693303987
416,broken hill,-31.95,141.4333,19.33,32,6,4.36,AU,1693303984
417,sampit,-2.5333,112.95,27.92,67,34,3.24,ID,1693304141
418,daru,-9.0763,143.2092,24.12,83,64,7.09,PG,1693303985
419,zeya,53.75,127.2667,19.17,65,6,1.21,RU,1693304142
420,dalby,-27.1833,151.2667,15.52,60,56,4.98,AU,1693304143
421,pangkalanbuun,-2.6833,111.6167,29.81,53,83,3.16,ID,1693304143
422,lorengau,-2.0226,147.2712,27.5,81,99,5.14,PG,1693304144
423,bankim,6.083,11.4905,27.56,66,90,1.24,CM,1693304144
424,gerede,40.8008,32.1969,26.22,26,0,3.21,TR,1693304145
425,catio,11.2833,-15.25,26.39,85,82,2.33,GW,1693304145
426,atar,20.5169,-13.0499,32.24,48,100,4.5,MR,1693304146
427,bunia,1.5667,30.25,29.46,30,50,5.18,CD,1693304146
428,zhongshu,24.5167,103.7667,18.65,90,100,2.6,CN,1693304147
429,saiha,22.4833,92.9667,26.37,95,100,0.35,IN,1693304147
430,alupka,44.4167,34.05,30.53,52,0,3.51,UA,1693304148
431,thanh hoa,19.8,105.7667,30.84,65,98,3.96,VN,1693304009
432,balaklava,44.5,33.6,29.61,54,7,3.97,UA,1693304000
433,newman,37.3138,-121.0208,20.72,78,0,2.29,US,1693304149
434,vadso,70.0744,29.7487,13.49,87,75,8.23,NO,1693304150
435,le grazie di ancona,43.6008,13.5153,23.56,46,100,4.12,IT,1693304150
436,nenjiang,49.1833,125.2167,17.75,83,100,2.71,CN,1693304151
437,la'ie,21.6477,-157.9253,25.62,75,5,2.24,US,1693304151
438,nasiriyah,31.0521,46.261,43.79,11,0,6.73,IQ,1693303916
439,opuwo,-18.0607,13.84,29.45,25,23,9.83,NA,1693304152
440,new norfolk,-42.7826,147.0587,13.72,95,100,0.45,AU,1693304153
441,luena,-11.7833,19.9167,28.09,22,20,5.31,AO,1693304154
442,hobyo,5.3505,48.5268,28.95,62,8,13.65,SO,1693304107
443,sao tome,0.3365,6.7273,25.76,82,88,4.68,ST,1693304155
444,tezu,27.9167,96.1667,31.27,66,37,1.56,IN,1693304155
445,port alfred,-33.5906,26.891,23.43,62,0,2.24,ZA,1693304156
446,golere,16.2557,-14.1017,29.12,65,69,5.12,SN,1693304156
447,kopargaon,19.8833,74.4833,29.95,51,83,5.47,IN,1693304157
448,goshogawara,40.8044,140.4414,26.73,86,54,1.16,JP,1693303906
449,kitimat,54.0524,-128.6534,17.21,97,100,2.68,CA,1693304158
450,argostolion,38.1811,20.489,31.04,51,20,3.6,GR,1693304159
451,grahamstown,-33.3042,26.5328,19.97,11,0,6.32,ZA,1693304159
452,waingapu,-9.6567,120.2641,26.13,65,7,6.91,ID,1693304160
453,flin flon,54.7682,-101.865,9.89,95,0,1.89,CA,1693304160
454,sarangani,5.4033,125.4636,28.25,79,39,6.8,PH,1693304161
455,ambon,-3.6954,128.1814,28.26,95,40,3.09,ID,1693304162
456,carapelle,41.3652,15.6938,22.14,78,20,4.12,IT,1693304163
457,camacupa,-12.0167,17.4833,27.99,22,55,4.36,AO,1693304164
458,paragominas,-2.9667,-47.4833,22.23,93,25,1.68,BR,1693303980
459,luanda,-8.8368,13.2343,26.0,65,75,1.54,AO,1693304145
460,swift current,50.2834,-107.8014,16.45,63,0,4.63,CA,1693304165
461,polyarnyy,69.1989,33.4478,14.05,64,100,9.49,RU,1693303943
462,nabire,-3.3667,135.4833,26.84,85,89,0.27,ID,1693304167
463,dos hermanas,37.2829,-5.9209,31.46,33,0,2.06,ES,1693304168
464,el sauzal de rodriguez,31.9,-116.6833,18.56,85,25,2.02,MX,1693304168
465,mendi,-6.1761,143.6513,13.55,99,93,0.72,PG,1693304169
466,nogliki,51.8333,143.1667,13.29,76,10,0.98,RU,1693304170
467,pudasjarvi,65.3833,26.9167,10.44,95,100,5.45,FI,1693304170
468,aland,17.5667,76.5667,33.9,33,41,4.12,IN,1693304171
469,palmer,42.1584,-72.3287,18.23,82,0,0.0,US,1693304171
470,san bernardo del viento,9.3533,-75.9524,27.55,83,100,1.55,CO,1693304172
471,leisure city,25.4954,-80.4292,30.01,84,0,2.06,US,1693304172
472,bathsheba,13.2167,-59.5167,27.34,89,75,8.75,BB,1693304173
473,aguazul,5.1728,-72.5471,21.68,77,81,1.85,CO,1693304173
474,qurayyat,31.3318,37.3428,32.06,29,0,6.76,SA,1693303920
475,alamosa,37.4695,-105.87,7.99,93,0,3.09,US,1693304174
476,tralee,52.2704,-9.7026,16.14,77,40,4.12,IE,1693304175
477,severo-yeniseyskiy,60.3725,93.0408,20.42,75,100,2.85,RU,1693304175
478,gamba,-2.65,10.0,26.98,67,56,3.86,GA,1693304176
479,ghanzi,-21.5667,21.7833,23.44,24,0,5.89,BW,1693304176
480,agadez,19.75,10.25,40.03,13,3,4.13,NE,1693304176
481,korla,41.7597,86.1469,29.93,18,100,5.02,CN,1693304177
482,pomona,34.0553,-117.7523,30.67,44,0,1.54,US,1693304178
483,richards bay,-28.783,32.0377,24.0,45,2,4.96,ZA,1693304074
484,kulhudhuffushi,6.6221,73.07,25.13,89,100,12.55,MV,1693304179
485,labrador city,52.9463,-66.9114,7.95,93,40,3.6,CA,1693304179
486,mandla,22.6,80.3833,28.28,70,62,2.96,IN,1693303907
487,al ghayzah,16.2079,52.176,31.32,68,10,5.76,YE,1693304180
488,vantaa,60.2941,25.041,21.11,72,40,5.66,FI,1693304181
489,fale old settlement,-9.3852,-171.2468,28.07,80,66,7.59,TK,1693304181
490,la ronge,55.1001,-105.2842,16.12,88,0,2.06,CA,1693304182
491,amga,60.8953,131.9608,20.04,68,18,0.71,RU,1693304183
492,dickinson,29.4608,-95.0513,28.42,78,0,3.09,US,1693304041
493,mitu,1.1983,-70.1733,21.19,99,95,1.1,CO,1693304183
494,beichengqu,40.4394,113.1536,18.46,57,34,4.22,CN,1693304184
495,pimentel,-6.8367,-79.9342,20.16,83,20,1.54,PE,1693304184
496,ola,59.5833,151.2833,12.86,76,5,1.64,RU,1693304185
497,ancud,-41.8697,-73.8203,7.21,82,100,5.91,CL,1693304135
498,bikenibeu village,1.3673,173.1241,28.98,79,100,2.06,KI,1693304186
499,nurota,40.5614,65.6886,30.7,8,3,6.28,UZ,1693304186
500,sarmiento,-45.5882,-69.07,4.57,68,70,5.16,AR,1693304187
501,seydi,39.4816,62.9137,33.54,8,1,4.27,TM,1693304188
502,khash,28.2211,61.2158,37.63,10,10,5.16,IR,1693304188
503,nadym,65.5333,72.5167,17.3,44,82,8.28,RU,1693304189
504,manay,7.215,126.5397,27.29,86,84,5.08,PH,1693304191
505,penzance,50.1186,-5.5371,16.62,100,100,2.57,GB,1693304191
506,guiren,33.6697,118.1889,23.62,80,92,1.95,CN,1693304147
507,yazihan,38.5947,38.18,29.15,32,75,2.57,TR,1693304024
508,coxim,-18.5067,-54.76,22.96,55,2,2.34,BR,1693304192
509,puquio,-14.7,-74.1333,8.3,45,0,0.7,PE,1693304193
510,kudahuvadhoo,2.6708,72.8944,27.45,75,90,6.29,MV,1693304193
511,baruun-urt,46.6806,113.2792,18.65,47,96,2.02,MN,1693304194
512,kolonia town,6.964,158.206,28.51,75,97,3.11,FM,1693304195
513,kilindoni,-7.9139,39.6668,24.56,71,24,9.63,TZ,1693304195
514,nantucket,41.2835,-70.0995,21.03,99,100,2.57,US,1693304064
515,cape canaveral,28.4058,-80.6048,27.77,90,40,1.54,US,1693304196
516,harlingen,26.1906,-97.6961,28.05,94,20,0.0,US,1693304197
517,imuris,30.7833,-110.8667,27.09,45,51,2.08,MX,1693304197
518,caleta de carquin,-11.0925,-77.6267,18.13,86,34,3.6,PE,1693304198
519,sao francisco de paula,-29.4481,-50.5836,5.87,90,2,2.4,BR,1693304076
520,neiafu,-18.65,-173.9833,22.99,70,100,10.05,TO,1693304199
521,ailuk,10.2197,169.9797,28.48,79,97,6.37,MH,1693304199
522,metlili chaamba,32.2667,3.6333,28.52,12,0,3.09,DZ,1693304200
523,birao,10.2849,22.7882,31.85,53,89,2.47,CF,1693304201
524,kuacjok,8.3002,27.9903,35.45,37,30,1.71,SS,1693304201
525,rikaze,29.25,88.8833,22.35,26,70,1.48,CN,1693304024
526,xicotencatl,23.0167,-98.8833,24.29,76,44,0.38,MX,1693304202
527,xiangyang,32.0422,112.1448,26.63,67,95,2.17,CN,1693304011
528,santana,-0.0583,-51.1817,25.1,88,20,0.0,BR,1693304203
529,forster,-32.1667,152.5167,11.27,97,1,3.91,AU,1693304111
530,mamuju,-2.6748,118.8885,27.38,81,21,0.53,ID,1693304205
531,swan hill,-35.3378,143.5544,15.34,54,31,4.25,AU,1693304205
532,bougouni,11.417,-7.479,22.81,94,100,3.15,ML,1693304206
533,castelnovo ne'monti,44.4356,10.4033,17.8,91,100,1.88,IT,1693304206
534,kangding,30.0513,101.9603,13.03,99,100,2.01,CN,1693304207
535,qacha's nek,-30.1154,28.6894,19.43,11,0,1.75,LS,1693304207
536,lewiston orchards,46.3804,-116.9754,26.02,38,0,3.6,US,1693304208
537,beyneu,45.3167,55.2,21.46,20,0,8.53,KZ,1693304208
538,nikolayevsk-on-amure,53.1406,140.73,15.95,71,0,1.38,RU,1693303992
539,port douglas,-16.4833,145.4667,21.32,71,98,4.76,AU,1693304209
540,karratha,-20.7377,116.8463,27.5,29,5,2.84,AU,1693303972
541,mili,6.0815,171.735,27.98,79,100,6.24,MH,1693304210
542,bodo,67.28,14.405,18.3,78,75,0.51,NO,1693303937
543,cestos city,5.46,-9.5828,26.84,77,100,3.07,LR,1693304211
544,banikoara,11.2985,2.4386,29.49,63,29,2.38,BJ,1693303964
545,neftekamsk,56.092,54.2703,16.31,50,55,6.68,RU,1693304212
546,deta,45.3889,21.2244,24.92,61,100,3.82,RO,1693304213
547,tongliao,43.6125,122.2653,16.74,85,99,7.66,CN,1693304213
548,butembo,0.15,29.2833,24.96,32,67,1.59,CD,1693304214
549,isabela,6.7085,121.9711,29.03,80,100,2.51,PH,1693304215
550,larkird,35.4894,66.6641,31.35,9,0,2.62,AF,1693304216
551,siyabuswa,-25.1132,29.0445,20.2,29,0,1.82,ZA,1693304217
552,sinop,41.7711,34.8709,24.24,41,23,4.58,TR,1693304217
553,port shepstone,-30.7414,30.455,20.72,64,4,9.87,ZA,1693304218
554,mersa matruh,31.3525,27.2453,31.19,51,0,6.06,EG,1693304093
555,mbanza-ngungu,-5.25,14.8667,28.59,49,100,2.53,CD,1693304219
556,north battleford,52.7834,-108.2847,13.05,88,0,2.57,CA,1693304220
557,lons-le-saunier,46.75,5.75,16.57,75,98,2.92,FR,1693304220
558,anaconda,46.1285,-112.9423,15.55,64,17,1.57,US,1693304221
559,afif,23.9065,42.9172,39.55,9,48,6.42,SA,1693304222
560,rudnichnyy,59.617,52.4703,16.86,47,31,3.75,RU,1693304223
561,ixtapa,20.7,-105.2,25.13,85,98,0.45,MX,1693304223
562,crucecita,-28.95,-58.9833,7.2,74,0,2.9,AR,1693304224
563,panshi,42.9422,126.0561,17.45,97,99,2.6,CN,1693304224
564,islamkot,24.6997,70.177,33.93,44,7,8.21,PK,1693304225
565,lodja,-3.4833,23.4333,36.99,26,21,0.97,CD,1693304225
566,bianzhuang,34.8486,118.0447,25.0,71,11,1.21,CN,1693304226
567,curvelo,-18.7564,-44.4308,19.5,82,18,1.66,BR,1693304227
568,fismes,49.3077,3.6861,18.13,59,97,2.02,FR,1693304228
569,alenquer,-1.9417,-54.7383,24.04,65,0,1.4,BR,1693304228
570,chitcani,46.783,29.6168,38.54,18,0,3.86,MD,1693304229
571,ghadamis,30.1337,9.5007,34.82,12,77,4.54,LY,1693304229
572,tabuk,17.4189,121.4443,23.66,96,100,1.02,PH,1693304230
573,weno,7.4515,151.8468,26.97,89,100,3.6,FM,1693304230
574,beloyarskiy,63.7119,66.6722,16.29,51,76,4.71,RU,1693304014
575,yinchuan,38.4681,106.2731,29.55,18,3,2.06,CN,1693304022
576,zagora,30.3484,-5.8365,37.14,9,0,4.81,MA,1693304231
577,hell-ville,-13.4,48.2667,25.36,72,47,4.65,MG,1693304232
578,puerto baquerizo moreno,-0.9,-89.6,23.72,77,97,5.34,EC,1693304233
579,rongelap,11.1635,166.8941,28.73,79,8,6.27,MH,1693304233
580,ondjiva,-17.0667,15.7333,29.32,24,77,5.14,AO,1693304234
581,kattivakkam,13.2167,80.3167,34.05,69,94,4.32,IN,1693304234
